pic_id,latitude,longitude,county,region,country
41123639690,50.438074,-3.558197,Devon,England,United Kingdom
28023642457,50.582836,3.885169,Ath,Hainault,Belgium
41980455215,1.288832,103.856903,Ath,Central Singapore,Singapore
42925426991,35.219048,-80.838947,Mecklenburg,North Carolina,United States
29028603718,44.275939,-74.006310,Essex,New York,United States
27991165517,37.410442,-5.991153,Seville,Andalusia,Spain
41973186975,50.880101,1.655920,Pas-de-Calais,Nord-Pas-de-Calais,France
39365784715,54.544771,-3.289129,Cumbria,England,United Kingdom
40382966282,53.274247,-1.630096,Derbyshire,England,United Kingdom
25852978427,47.746428,13.959194,Gmunden District,Upper Austria,Austria
41824801685,-31.717215,-60.542993,Parana,Entre Rios,Argentina
41816674765,51.718575,4.228169,Goeree-Overflakkee,South Holland,Netherlands
41001128611,51.208888,3.230000,Bruges,West-Vlaanderen,Belgium
28086309908,44.107456,9.725646,La Spezia,Liguria,Italy
40930990024,51.153480,2.724094,Veurne,West-Vlaanderen,Belgium
40563524980,62.026741,23.801311,Yla-Pirkanmaa,Pirkanmaa,Finland
28450507398,51.812311,-1.179353,Oxfordshire,England,United Kingdom
41460328415,45.844474,6.173468,Upper Savoy,Rhone-Alpes,France
40396526152,51.798725,3.938258,Goeree-Overflakkee,South Holland,Netherlands
27021862407,53.525265,9.928464,Stadtkreis Hamburg,Hamburg,Germany
39668414091,53.011816,-2.332489,Staffordshire,England,United Kingdom
28180011478,31.236692,121.487116,Shanghai,Shanghai,China
39315417044,51.703888,4.127777,Goeree-Overflakkee,South Holland,Netherlands
24989049887,51.904686,4.496680,Rotterdam,South Holland,Netherlands
41885997394,42.408680,-88.339723,Mchenry,Illinois,United States
42820581842,19.691081,-156.041135,Hawaii,Hawaii,United States
41121352920,67.880195,12.982063,Moskenes Kommune,Nordland,Norway
42185312401,51.917383,4.489127,Rotterdam,South Holland,Netherlands
41970470242,37.379422,-77.336448,Chesterfield,Virginia,United States
41035280734,54.425989,-3.317828,Cumbria,England,United Kingdom
42101363431,32.646295,-79.957444,Charleston,South Carolina,United States
27875108219,51.906323,4.478119,Rotterdam,South Holland,Netherlands
42389059992,26.335455,-80.072034,Palm Beach,Florida,United States
41974662751,52.339550,-3.799331,Ceredigion County,Wales,United Kingdom
27403706877,49.390362,-1.032028,Calvados,Lower Normandy,France
42690270932,61.694777,23.823316,Tampereen,Pirkanmaa,Finland
28406891849,53.395792,-1.736783,Derbyshire,England,United Kingdom
40318699850,39.782880,19.676383,Ionian Islands,Peloponnese Western Greece and the Ionian Island,Greece
28233678138,50.392662,-5.146892,Cornwall and Isles of Scilly,England,United Kingdom
42075939351,50.994066,-4.532936,Devon,England,United Kingdom
25741413258,49.764102,0.366325,Seine-Maritime,Upper Normandy,France
42448945171,51.775879,7.442926,Landkreis Coesfeld,North Rhine-Westphalia,Germany
41627243531,-62.097295,-57.895030,Landkreis Coesfeld,North Rhine-Westphalia,Germany
41666484845,49.936748,6.204754,Vianden,Diekirch,Luxembourg
26685738188,52.385075,4.643965,Haarlem,North Holland,Netherlands
26832561627,54.429291,-3.090934,Cumbria,England,United Kingdom
41993054995,40.961817,20.782957,Cumbria,Ohrid Municipality,Macedonia
40250204582,38.783645,-9.090630,Lisbon,Lisbon,Portugal
41810305214,55.976961,-3.169448,City of Edinburgh,Scotland,United Kingdom
39481863735,-37.932859,-57.582135,Gral Pueyrredon,Buenos Aires Province,Argentina
23793002493,49.047080,8.264154,Germersheim,Rhineland-Palatinate,Germany
42917481941,54.560541,-2.947082,Cumbria,England,United Kingdom
38919066824,57.430166,-6.783843,Highland,Scotland,United Kingdom
39881520010,8.119201,98.678029,Ko Yao,Phangnga,Thailand
27678837839,51.680316,4.156355,Goeree-Overflakkee,South Holland,Netherlands
39654102122,51.712884,14.464359,Spree-Neisse,Brandenburg,Germany
40128286194,51.920277,4.490277,Rotterdam,South Holland,Netherlands
41079732035,53.364228,-3.182065,Merseyside,England,United Kingdom
40770626705,37.728269,-119.171018,Mono,California,United States
42013049002,53.302466,-4.691333,Anglesey County,Wales,United Kingdom
28667613248,65.425013,-17.349815,Anglesey County,Akureyri,Iceland
41575214851,43.384422,-4.398592,Cantabria,Cantabria,Spain
42175319724,25.100681,121.589083,Neihu District,Taipei City,Taiwan
41225862361,37.833912,-122.485413,Marin,California,United States
40696538460,37.680254,-118.806860,Mono,California,United States
28080458777,50.583000,3.885083,Ath,Hainault,Belgium
42892433371,50.188769,7.478771,Rhein-Hunsruck-Kreis,Rhineland-Palatinate,Germany
25560657318,52.981277,-3.198945,Denbighshire County,Wales,United Kingdom
41115439974,39.566198,2.646589,Balearic Islands,Balearic Islands,Spain
41238554835,64.642555,15.765211,Dorotea,Vasterbotten,Sweden
27640111220,49.044134,8.269100,Germersheim,Rhineland-Palatinate,Germany
26161830698,32.185489,-110.817086,Pima,Arizona,United States
41974815305,28.097802,-82.313239,Hillsborough,Florida,United States
25391010207,54.389316,-3.031856,Cumbria,England,United Kingdom
41416125215,49.935767,6.622438,Bitburg-Prum,Rhineland-Palatinate,Germany
40320767790,51.749006,-1.363656,Oxfordshire,England,United Kingdom
41964662005,18.344919,-64.977525,Charlotte Amalie,Saint Thomas Island,US Virgin Islands
42021818371,59.854752,10.415361,Asker Kommune,Akershus Fylke,Norway
42839892461,54.447386,-2.987680,Cumbria,England,United Kingdom
42159555024,47.602123,13.138586,Hallein District,Salzburg,Austria
40887236140,52.271040,8.060250,Osnabruck,Lower Saxony,Germany
41535545642,37.118818,-8.551064,Portimao,Faro,Portugal
40151847210,61.696830,23.804005,Tampereen,Pirkanmaa,Finland
42040114585,51.798711,3.938397,Goeree-Overflakkee,South Holland,Netherlands
41776905765,57.224998,-6.281776,Highland,Scotland,United Kingdom
41811674632,53.622142,-2.871551,Lancashire,England,United Kingdom
42185153324,53.391493,-6.647490,Lancashire,Kildare,Ireland
36368963226,48.972667,8.223041,Germersheim,Rhineland-Palatinate,Germany
29000141338,53.069762,-4.075412,Germersheim,Wales,United Kingdom
42850099791,41.086597,20.727081,Germersheim,Ohrid Municipality,Macedonia
41092633850,51.757944,4.027769,Goeree-Overflakkee,South Holland,Netherlands
42887852321,18.322600,-64.921206,Charlotte Amalie,Saint Thomas Island,US Virgin Islands
28987270078,45.434036,12.344400,Venice,Veneto,Italy
39714108034,50.831451,-0.275205,West Sussex,England,United Kingdom
42868670161,34.687486,33.067866,West Sussex,Limassol District,Cyprus
27036281248,49.037642,8.308271,Stadtkreis Karlsruhe,Baden-Wurttemberg,Germany
26292912207,52.970850,-3.170832,Denbighshire County,Wales,United Kingdom
40107396190,48.972769,8.222952,Germersheim,Rhineland-Palatinate,Germany
40325950160,57.362900,-4.496948,Highland,Scotland,United Kingdom
41174193694,49.044944,8.267513,Germersheim,Rhineland-Palatinate,Germany
28050670747,36.926703,14.729833,Ragusa,Sicily,Italy
41929247525,40.971765,21.914119,Central Macedonia,Macedonia and Thrace,Greece
27956213087,44.709917,-75.511597,Leeds and Grenville,Ontario,Canada
27740220399,64.764644,-23.624049,Leeds and Grenville,Snaefellsnesog Hnappadalssysla,Iceland
27360651368,49.052987,8.263553,Germersheim,Rhineland-Palatinate,Germany
41929222365,40.971765,21.914119,Central Macedonia,Macedonia and Thrace,Greece
24922430817,-36.487589,150.053605,Bega Valley,New South Wales,Australia
42734463672,41.391748,-74.968814,Pike,Pennsylvania,United States
26286853187,50.819574,0.333768,East Sussex,England,United Kingdom
39989220391,43.767591,11.252939,Florence,Tuscany,Italy
26439286338,46.967404,-84.752086,Algoma,Ontario,Canada
40251928551,49.012414,8.405592,Stadtkreis Karlsruhe,Baden-Wurttemberg,Germany
42779897852,50.582973,3.883581,Ath,Hainault,Belgium
24608085777,50.462266,4.874324,Namur,Namur,Belgium
40546605572,36.162998,-86.773066,Davidson,Tennessee,United States
27718509769,5.196496,-3.725244,Grand Bassam,Sud-Comoe,Ivory Coast
17141710351,39.425188,21.515693,Thessaly,Thessaly and Continental Greece,Greece
41953890045,36.926703,14.729833,Ragusa,Sicily,Italy
41634331262,55.753395,37.613067,Moskva Raion,Moscow Federal City,Russia
41115557724,52.183476,8.491814,Osnabruck,Lower Saxony,Germany
25720478898,48.855211,2.300058,Paris,Ile-de-France,France
40958280401,35.129491,-90.070381,Shelby,Tennessee,United States
38981466094,48.864928,2.321561,Paris,Ile-de-France,France
40799223335,39.189690,9.525146,Cagliari,Sardinia,Italy
24705267227,48.861138,2.334211,Paris,Ile-de-France,France
42841524162,-38.646938,143.069887,Paris,Victoria,Australia
41797551624,50.779885,5.855122,Gulpen-Wittem,Limburg,Netherlands
42119961134,38.783769,-9.090778,Lisbon,Lisbon,Portugal
42514695141,46.241290,-120.039839,Yakima,Washington,United States
41745165792,52.183010,8.491948,Osnabruck,Lower Saxony,Germany
41676074901,55.538655,8.150045,Varde,Syddanmark,Denmark
40555270521,52.321464,1.678977,Suffolk,England,United Kingdom
42182789804,44.276302,-73.989057,Essex,New York,United States
42661440282,47.441833,11.763180,Schwaz District,Tyrol,Austria
28148786039,44.606994,-79.393997,Simcoe,Ontario,Canada
42887592852,52.985407,5.871376,Skarsterlan,Frise,Netherlands
41995046205,53.105536,-3.988002,Skarsterlan,Wales,United Kingdom
28085732688,50.831773,-1.088075,Hampshire,England,United Kingdom
40844195655,55.542471,8.133730,Varde,Syddanmark,Denmark
42065612711,52.207795,8.771458,Landkreis Herford,North Rhine-Westphalia,Germany
42115834014,43.018458,-82.382363,Lambton,Ontario,Canada
41455666654,52.260255,8.918558,Minden-Lubbecke,North Rhine-Westphalia,Germany
40956038725,52.183476,8.491814,Osnabruck,Lower Saxony,Germany
42899494711,49.956265,6.698527,Bernkastel-Wittlich,Rhineland-Palatinate,Germany
24801646007,51.242360,5.676627,Weert,Limburg,Netherlands
26376433917,55.547891,8.112628,Varde,Syddanmark,Denmark
27968497727,36.926703,14.729833,Ragusa,Sicily,Italy
38830829735,52.376197,4.881684,Amsterdam,North Holland,Netherlands
41174983645,32.786083,-79.917984,Charleston,South Carolina,United States
40424387701,21.893000,96.055065,Charleston,Mandalay,Myanmar
42436492111,53.143578,-4.389038,Anglesey County,Wales,United Kingdom
28413260218,52.173405,8.450802,Osnabruck,Lower Saxony,Germany
41135110814,33.760097,-84.392895,Fulton,Georgia,United States
40604874250,48.973449,8.222869,Germersheim,Rhineland-Palatinate,Germany
39985110450,19.423787,-155.912132,Hawaii,Hawaii,United States
42137918174,42.209829,-87.835178,Lake,Illinois,United States
26467621618,54.438801,-3.306541,Cumbria,England,United Kingdom
41290044104,6.818588,-5.220351,Yamoussoukro,Lacs,Ivory Coast
40173047980,42.002047,3.184061,Gerona,Catalonia,Spain
40053951970,50.440707,4.860076,Namur,Namur,Belgium
40818221685,49.199127,8.106999,Landau in der Pfalz,Rhineland-Palatinate,Germany
42523963451,51.610766,-4.999294,Pembrokeshire County,Wales,United Kingdom
38865270980,52.267683,8.919496,Minden-Lubbecke,North Rhine-Westphalia,Germany
37629780204,44.276179,-73.999614,Essex,New York,United States
26161526837,55.542336,8.133569,Varde,Syddanmark,Denmark
40639320884,48.978877,8.223958,Germersheim,Rhineland-Palatinate,Germany
40382281474,55.547661,8.114663,Varde,Syddanmark,Denmark
28475929768,52.159045,8.418796,Osnabruck,Lower Saxony,Germany
26873289977,49.223091,8.369836,Germersheim,Rhineland-Palatinate,Germany
42173135961,32.779057,-79.925580,Charleston,South Carolina,United States
42153093771,47.678808,8.616019,Schaffhausen,Canton of Schaffhausen,Switzerland
41389751434,32.778173,-79.925268,Charleston,South Carolina,United States
28030057518,55.546205,8.119518,Varde,Syddanmark,Denmark
41659406364,41.893780,12.482872,Rome,Lazio,Italy
33371998512,34.670977,33.043366,Rome,Limassol District,Cyprus
41296252195,48.977202,8.221597,Germersheim,Rhineland-Palatinate,Germany
42374281781,48.972213,8.222947,Germersheim,Rhineland-Palatinate,Germany
40331781930,49.043938,8.270027,Germersheim,Rhineland-Palatinate,Germany
28951184648,40.317784,-76.888160,Dauphin,Pennsylvania,United States
40513519630,32.772138,-79.927811,Charleston,South Carolina,United States
42042767301,55.542428,8.133383,Varde,Syddanmark,Denmark
41873260712,49.044977,8.267550,Germersheim,Rhineland-Palatinate,Germany
25588758737,42.935593,-78.872737,Erie,New York,United States
40366363264,55.546770,8.115983,Varde,Syddanmark,Denmark
40873450992,5.267589,-3.939585,Abidjan,Lagunes,Ivory Coast
40250777770,50.344593,4.844241,Dinant,Namur,Belgium
41466383485,52.183222,8.492238,Osnabruck,Lower Saxony,Germany
39547423202,45.683367,13.749561,Trieste,Friuli-Venezia Giulia,Italy
27412485427,32.778813,-79.924936,Charleston,South Carolina,United States
22953872252,51.879552,4.645113,Molenwaard,South Holland,Netherlands
39697913455,55.074583,-4.553146,Dumfries and Galloway,Scotland,United Kingdom
28397246758,48.972238,8.223008,Germersheim,Rhineland-Palatinate,Germany
41350878442,55.547940,8.112886,Varde,Syddanmark,Denmark
38863464304,40.958317,-5.667228,Salamanca,Castille and Leon,Spain
42081715674,35.219346,-80.838947,Mecklenburg,North Carolina,United States
40674614325,51.212426,3.228156,Bruges,West-Vlaanderen,Belgium
26596107887,45.415267,8.048483,Biella,Piedmont,Italy
42490432162,52.243702,8.345963,Osnabruck,Lower Saxony,Germany
28543511978,52.130643,8.436263,Landkreis Herford,North Rhine-Westphalia,Germany
41798014504,52.183221,8.492238,Osnabruck,Lower Saxony,Germany
28806349758,52.219950,8.374405,Osnabruck,Lower Saxony,Germany
41008313384,50.106742,8.705259,Frankfurt,Hesse,Germany
41535938215,52.182791,8.491833,Osnabruck,Lower Saxony,Germany
39705555072,25.074414,121.632631,Xizhi District,New Taipei City,Taiwan
25938893378,39.683939,9.446868,Ogliastra,Sardinia,Italy
40991527520,54.387977,-3.036992,Cumbria,England,United Kingdom
42650697092,52.249402,8.212680,Osnabruck,Lower Saxony,Germany
39787849212,45.869375,9.655983,Bergamo,Lombardy,Italy
41329883604,40.259780,17.894153,Lecce,Puglia,Italy
41672935932,28.576833,-16.187335,Santa Cruz de Tenerife,Canary Islands,Spain
40358442410,37.177819,-3.588548,Granada,Andalusia,Spain
42470291282,50.582646,3.885340,Ath,Hainault,Belgium
39290326784,39.766984,-0.155181,Castellon,Valencia,Spain
39411422024,52.374786,4.881148,Amsterdam,North Holland,Netherlands
40381069270,40.259780,17.894153,Lecce,Puglia,Italy
41310296914,37.187647,-110.918794,San Juan,Utah,United States
28843647008,52.214110,8.282071,Osnabruck,Lower Saxony,Germany
28699849488,52.243701,8.345965,Osnabruck,Lower Saxony,Germany
28867950098,54.430000,-3.093056,Cumbria,England,United Kingdom
27809724389,43.733491,-79.360127,Toronto,Ontario,Canada
41906221424,52.142766,8.318854,Osnabruck,Lower Saxony,Germany
42539411572,33.678782,-78.894495,Horry,South Carolina,United States
41936686345,31.536554,35.393657,Bethlehem,West Bank,Palestine
41290255574,43.565451,13.591450,Ancona,Marche,Italy
41872677241,51.211310,3.224058,Bruges,West-Vlaanderen,Belgium
40694166325,55.547981,8.112399,Varde,Syddanmark,Denmark
41928278115,57.131301,-3.922634,Highland,Scotland,United Kingdom
41576622432,28.637568,-80.627288,Brevard,Florida,United States
42689505242,52.217990,8.370325,Osnabruck,Lower Saxony,Germany
42732778102,41.905873,12.482228,Rome,Lazio,Italy
25229059857,49.039309,8.302091,Stadtkreis Karlsruhe,Baden-Wurttemberg,Germany
42006049664,41.834709,-71.108976,Bristol,Massachusetts,United States
41777209405,33.683425,-78.886985,Horry,South Carolina,United States
42893820271,37.615727,-119.008584,Mono,California,United States
42000024581,55.546798,8.121886,Varde,Syddanmark,Denmark
26205446798,52.374786,4.881148,Amsterdam,North Holland,Netherlands
39674432154,53.138841,-4.277243,Gwynedd,Wales,United Kingdom
31281731280,45.830096,6.205714,Upper Savoy,Rhone-Alpes,France
28526006058,49.000844,8.399316,Stadtkreis Karlsruhe,Baden-Wurttemberg,Germany
41723611255,33.683389,-78.885140,Horry,South Carolina,United States
40546306285,43.662128,-79.374547,Toronto,Ontario,Canada
40046303531,52.376735,4.884216,Amsterdam,North Holland,Netherlands
40967966580,33.687781,-78.884153,Horry,South Carolina,United States
39760334252,45.870708,6.144018,Upper Savoy,Rhone-Alpes,France
27838966507,33.678211,-78.894023,Horry,South Carolina,United States
39424842495,58.108361,-5.180053,Horry,South Carolina,United Kingdom
27707979558,43.662128,-79.374547,Toronto,Ontario,Canada
41762049481,52.617974,5.692977,Noordoostpolder,Flevoland,Netherlands
41026116934,52.374347,4.878208,Amsterdam,North Holland,Netherlands
40696782290,44.275939,-74.006310,Essex,New York,United States
40752251575,6.812729,-5.285582,Yamoussoukro,Lacs,Ivory Coast
28692715558,43.734124,-79.359312,Toronto,Ontario,Canada
28248864898,40.259780,17.894153,Lecce,Puglia,Italy
42930422361,49.044975,8.267547,Germersheim,Rhineland-Palatinate,Germany
41982658495,35.226717,-80.847541,Mecklenburg,North Carolina,United States
24797595367,46.104065,-62.908401,Queens,Prince Edward Island,Canada
27039115957,49.044969,8.267586,Germersheim,Rhineland-Palatinate,Germany
39485991984,59.138092,-3.128873,Orkney,Scotland,United Kingdom
40750538235,56.521529,-4.727725,Argyll and Bute,Scotland,United Kingdom
27889491207,-43.934255,170.484166,Mackenzie District,Canterbury,New Zealand
41702210232,52.375080,4.883358,Amsterdam,North Holland,Netherlands
28311241208,59.101528,-3.309976,Orkney,Scotland,United Kingdom
31314343236,45.918676,6.662263,Upper Savoy,Rhone-Alpes,France
40942398365,42.752873,13.972549,Teramo,Abruzzi,Italy
39798495734,30.673583,-81.464642,Nassau,Florida,United States
41859628281,6.810236,-5.302791,Yamoussoukro,Lacs,Ivory Coast
25104738535,45.830096,6.205714,Upper Savoy,Rhone-Alpes,France
29021206368,55.864932,-4.264980,Glasgow City,Scotland,United Kingdom
41480691232,46.205218,-1.354279,Charente-Maritime,Poitou-Charentes,France
3305267874,44.885066,-93.301391,Hennepin,Minnesota,United States
26205273778,40.276906,8.482131,Oristano,Sardinia,Italy
41881659225,43.957156,-78.166608,Northumberland,Ontario,Canada
40187427965,52.233393,5.057658,Wijdemeren,North Holland,Netherlands
41661733175,37.365480,-118.684306,Inyo,California,United States
41589446452,55.542348,8.133125,Varde,Syddanmark,Denmark
41702655072,52.375657,4.884066,Amsterdam,North Holland,Netherlands
28820358818,55.611360,37.680850,Moskva Raion,Moscow Federal City,Russia
27844353418,-27.355645,-55.894746,Posadas,Misiones Province,Argentina
41797469865,45.801326,8.781316,Varese,Lombardy,Italy
42753432092,-2.738329,111.898326,Kotawaringin Barat,Central Kalimantan,Indonesia
41012845230,53.071013,-4.042110,Kotawaringin Barat,Wales,United Kingdom
39647561775,53.294746,-2.945623,Cheshire,England,United Kingdom
40957991924,40.601441,8.300170,Sassari,Sardinia,Italy
40886527694,47.347045,-3.151349,Morbihan,Brittany,France
26739216358,65.461444,12.194661,Bronnoy Kommune,Nordland,Norway
28157231068,40.624600,-111.742136,Salt Lake,Utah,United States
40767126482,52.523741,13.378601,Berlin,Berlin,Germany
41735283762,39.819447,3.112692,Balearic Islands,Balearic Islands,Spain
41055990324,40.601441,8.300170,Sassari,Sardinia,Italy
40120772685,58.426527,8.752412,Arendal Kommune,Aust-Agder Fylke,Norway
41710269352,42.752873,13.972549,Teramo,Abruzzi,Italy
27780787857,49.021963,8.279291,Germersheim,Rhineland-Palatinate,Germany
41053156731,52.228684,5.071391,Wijdemeren,North Holland,Netherlands
30513982643,48.651964,-4.195404,Finistere,Brittany,France
42688279472,-8.621321,115.087387,Tabanan Kabupaten,Bali,Indonesia
28374440259,52.374871,4.881062,Amsterdam,North Holland,Netherlands
27875301608,52.374923,4.883272,Amsterdam,North Holland,Netherlands
39985927890,42.752873,13.972549,Teramo,Abruzzi,Italy
26508506048,1.399892,103.803462,Teramo,North West,Singapore
41852739205,40.551374,8.316650,Sassari,Sardinia,Italy
40542413150,40.339905,-75.171783,Bucks,Pennsylvania,United States
41257242572,47.370155,8.541827,Zurich,Canton of Zurich,Switzerland
25651628978,41.385223,9.159164,South Corsica,Corsica,France
26467920548,47.607537,12.895631,Berchtesgadener Land,Bavaria,Germany
28107481128,53.531176,9.916448,Stadtkreis Hamburg,Hamburg,Germany
41339063444,64.050480,-16.182088,Stadtkreis Hamburg,Auster-Skaftafellssysla,Iceland
40724895520,49.044619,8.268177,Germersheim,Rhineland-Palatinate,Germany
40007536342,52.055375,5.243263,Bunnik,Utrecht,Netherlands
40073042260,6.813315,-5.282117,Yamoussoukro,Lacs,Ivory Coast
40386803951,49.049858,8.254787,Germersheim,Rhineland-Palatinate,Germany
41981295121,40.638628,0.720883,Tarragona,Catalonia,Spain
27523189787,43.662128,-79.374547,Toronto,Ontario,Canada
40837723925,6.811195,-5.301139,Yamoussoukro,Lacs,Ivory Coast
28113577729,43.071019,-89.381074,Dane,Wisconsin,United States
27144449448,45.536030,9.528128,Milan,Lombardy,Italy
27066030097,54.184840,7.934532,Landkreis Pinneberg,Schleswig-Holstein,Germany
41033050642,52.225319,5.067099,Wijdemeren,North Holland,Netherlands
39262449850,25.031690,121.510441,Jhongjheng District,Taipei City,Taiwan
25778711077,38.094578,-4.867898,Cordoba,Andalusia,Spain
41037836140,51.505083,-0.078979,Greater London,England,United Kingdom
25159261717,-34.022128,23.898632,Greater London,England,South Africa
26666516598,47.929031,7.187451,Haut-Rhin,Alsace,France
40411530774,52.222300,5.057057,Wijdemeren,North Holland,Netherlands
41645463752,58.098202,0.192260,Wijdemeren,North Holland,Netherlands
42863478731,61.497003,25.677323,Heinola,Paijanne Tavastia,Finland
41032895210,18.352988,-65.040787,West End,Saint Thomas Island,US Virgin Islands
40612057291,13.463754,-15.796279,West End,Lower River,The Gambia
40111818605,28.081616,-17.332875,Santa Cruz de Tenerife,Canary Islands,Spain
25936792897,25.078055,55.126666,Dubai,Dubai,United Arab Emirates
39126623260,44.900166,15.611983,Plitvicka Jezera,Lika-Senj,Croatia
42692710142,52.912929,5.879273,Skarsterlan,Frise,Netherlands
2713931450,9.288921,79.319744,Ramanathapuram,Tamil Nadu,India
27933283358,44.019564,-0.847148,Landes,Aquitaine,France
42856462822,35.226717,-80.847541,Mecklenburg,North Carolina,United States
25949155227,48.773750,2.298246,Hauts-de-Seine,Ile-de-France,France
28671191234,40.066380,20.568637,Epirus,Epirus and Western Macedonia,Greece
28098166968,59.309716,18.042383,Stockholm Kommun,Stockholm,Sweden
41735357012,52.374294,4.878187,Amsterdam,North Holland,Netherlands
39580949512,40.703545,-73.994379,Brooklyn,New York,United States
42056333581,41.893695,12.483987,Rome,Lazio,Italy
41081614931,54.602363,-3.077523,Cumbria,England,United Kingdom
42737654401,-8.544185,119.991517,Manggarai Barat,East Nusa Tenggara,Indonesia
41532543562,37.797551,-122.393714,San Francisco,California,United States
40884665064,53.079280,8.809361,Bremen,Bremen,Germany
27412397837,46.988632,6.928113,Neuchatel,Canton of Neuchatel,Switzerland
27745365428,-28.044314,153.424163,Gold Coast City,Queensland,Australia
42573189712,37.630585,-122.028016,Alameda,California,United States
40862405595,52.374910,4.883122,Amsterdam,North Holland,Netherlands
42181628021,43.733460,-79.360771,Toronto,Ontario,Canada
41598115331,6.828069,-5.297169,Yamoussoukro,Lacs,Ivory Coast
26238981158,52.572646,-0.242578,Cambridgeshire,England,United Kingdom
42272858041,57.590000,-3.875000,Highland,Scotland,United Kingdom
25430852768,34.670597,33.038350,Highland,Limassol District,Cyprus
26973727258,13.193884,-16.656399,Highland,Western,The Gambia
39853463654,44.276486,-74.001674,Essex,New York,United States
27344798367,36.060338,-86.805735,Davidson,Tennessee,United States
24567468358,40.862413,-73.880610,Bronx,New York,United States
39760585525,64.045916,-16.173078,Bronx,Auster-Skaftafellssysla,Iceland
40771468490,40.601441,8.300170,Sassari,Sardinia,Italy
38780805624,36.949852,-122.057740,Santa Cruz,California,United States
26418706027,37.287066,-121.943639,Santa Clara,California,United States
40951447114,25.290404,121.534023,Shimen District,New Taipei City,Taiwan
29002819208,42.099032,1.584285,Lleida,Catalonia,Spain
24527430647,34.669688,33.039813,Lleida,Limassol District,Cyprus
27152826497,39.688221,9.420526,Ogliastra,Sardinia,Italy
40115262980,41.679325,13.573769,Frosinone,Lazio,Italy
41019137780,60.339403,18.442203,Osthammar,Uppsala Lan,Sweden
26871446477,52.375497,4.883744,Amsterdam,North Holland,Netherlands
33019739453,34.705502,33.117352,Amsterdam,Limassol District,Cyprus
38783529055,49.388183,-1.048679,Calvados,Lower Normandy,France
41782095681,35.822242,14.457342,Qormi,Malta Majjistral,Malta
39408549785,49.124444,20.059166,Poprad District,Presovsky,Slovakia
42373090212,68.077919,13.327445,Flakstad Kommune,Nordland,Norway
41112075514,58.257361,-6.884350,Eilean Siar,Scotland,United Kingdom
28268942759,51.445876,0.369286,Kent,England,United Kingdom
40842954215,52.375512,4.883680,Amsterdam,North Holland,Netherlands
40778850065,6.812740,-5.286237,Yamoussoukro,Lacs,Ivory Coast
39827553285,-32.754364,115.695819,Mandurah,Western Australia,Australia
39088677105,60.757314,10.735015,Gjovik Kommune,Oppland Fylke,Norway
39606028224,62.048897,7.269258,Stranda Kommune,More og Romsdal,Norway
38522398910,37.201397,-85.940170,Hart,Kentucky,United States
28403350209,63.528932,-19.480605,Hart,Rangarvallasysla,Iceland
39804612204,52.359281,4.606707,Heemstede,North Holland,Netherlands
28679146448,48.649192,-2.328983,Cotes-d'Armor,Brittany,France
40007641122,5.271178,100.268214,Barat Daya,Penang,Malaysia
39406885915,51.798611,3.938333,Goeree-Overflakkee,South Holland,Netherlands
27223233237,41.319849,-76.276016,Goeree-Overflakkee,Pennsylvania,United States
28952028048,44.709917,-75.511597,Leeds and Grenville,Ontario,Canada
40742865491,28.092488,-17.340562,Santa Cruz de Tenerife,Canary Islands,Spain
40769736041,38.615898,-0.910534,Alicante,Valencia,Spain
40175269500,52.490374,5.526251,Lelystad,Flevoland,Netherlands
24836506837,39.247060,-76.761045,Lelystad,Maryland,United States
25074302987,51.798677,3.938158,Goeree-Overflakkee,South Holland,Netherlands
39598402465,50.721547,-2.002828,Dorset,England,United Kingdom
27715616118,40.768432,0.738141,Tarragona,Catalonia,Spain
40689839204,38.870333,1.203346,Balearic Islands,Balearic Islands,Spain
40925457500,36.122519,-115.170836,Clark,Nevada,United States
28512010408,45.884504,7.932515,Vercelli,Piedmont,Italy
40452849411,50.468449,4.890890,Namur,Namur,Belgium
40031299275,42.982925,-87.862558,Milwaukee,Wisconsin,United States
41139608751,43.272830,6.633467,Var,Provence-Alpes-Cote d'Azur,France
40351333260,45.004480,-89.338923,Marathon,Wisconsin,United States
39089744945,50.462161,4.871705,Namur,Namur,Belgium
27981415819,54.529855,-3.255023,Cumbria,England,United Kingdom
39811508720,64.284547,-14.989471,Cumbria,Auster-Skaftafellssysla,Iceland
39428750090,51.733333,4.164166,Goeree-Overflakkee,South Holland,Netherlands
24897010947,34.669688,33.039813,Goeree-Overflakkee,Limassol District,Cyprus
28226299018,47.550854,10.733921,Ostallgau,Bavaria,Germany
41860091185,-25.345073,131.035265,Macdonnell,Northern Territory,Australia
25001479897,36.721549,-2.190313,Almeria,Andalusia,Spain
41044318794,52.374648,4.883015,Amsterdam,North Holland,Netherlands
39778996010,52.487207,5.530577,Lelystad,Flevoland,Netherlands
40067154500,51.507990,-0.128005,Greater London,England,United Kingdom
40939456270,45.944294,8.883261,Varese,Lombardy,Italy
38685703755,54.327686,10.152568,Stadtkreis Kiel,Schleswig-Holstein,Germany
42070482374,68.104757,13.289766,Flakstad Kommune,Nordland,Norway
28559832868,39.056992,-77.036937,Montgomery,Maryland,United States
39943331515,37.576436,-1.219460,Murcia,Murcia,Spain
39986159692,57.479463,-4.229156,Highland,Scotland,United Kingdom
42389413831,26.714426,-80.038233,Palm Beach,Florida,United States
27924401579,45.827124,10.078582,Bergamo,Lombardy,Italy
27645426387,47.321534,5.039377,Cote-d'Or,Burgundy,France
27347966927,52.946015,5.427718,Súdwest-Fryslân,Frise,Netherlands
26557017947,52.238744,6.159730,Deventer,Overyssel,Netherlands
41800485871,52.052694,5.243905,Bunnik,Utrecht,Netherlands
42785367212,18.522576,-77.861480,Bunnik,Saint James,Jamaica
40040421450,52.057027,5.241327,Bunnik,Utrecht,Netherlands
40901562354,53.002318,-2.912642,Wrexham County Borough,Wales,United Kingdom
41861564581,7.292373,80.637588,Kandy,Central,Sri Lanka
27017678407,1.340492,103.730336,Kandy,South West,Singapore
39783888041,48.851063,2.352361,Paris,Ile-de-France,France
39635300082,36.926703,14.729833,Ragusa,Sicily,Italy
30034982960,48.864806,2.320518,Paris,Ile-de-France,France
41404935141,55.205030,-6.981296,Paris,Donegal,Ireland
40076492200,25.168379,121.442205,Tamsui District,New Taipei City,Taiwan
39098284810,52.385606,1.719403,Suffolk,England,United Kingdom
41644543602,37.289990,-76.014661,Northampton,Virginia,United States
39081916254,33.599763,-117.899823,Orange,California,United States
40228203180,59.073272,6.047411,Strand Kommune,Rogaland,Norway
40139839280,24.952124,121.648778,Shiding District,New Taipei City,Taiwan
40711135335,48.547040,9.165655,Reutlingen,Baden-Wurttemberg,Germany
27458240527,31.011261,-81.430248,Glynn,Georgia,United States
40757939171,68.324233,14.642028,Vagan Kommune,Nordland,Norway
38906122895,41.274094,-72.424628,Middlesex,Connecticut,United States
41165777164,52.053291,5.245572,Bunnik,Utrecht,Netherlands
42700639642,52.916163,5.889315,Skarsterlan,Frise,Netherlands
38636457540,42.116327,-86.494339,Berrien,Michigan,United States
26043184547,51.153480,2.724094,Veurne,West-Vlaanderen,Belgium
41741605851,37.118870,-8.638848,Lagos,Faro,Portugal
40204528991,45.431625,12.339084,Venice,Veneto,Italy
31593641304,44.900468,12.486725,Rovigo,Veneto,Italy
39577700731,55.987971,-3.220884,City of Edinburgh,Scotland,United Kingdom
39881606594,38.184497,-0.615320,Alicante,Valencia,Spain
41841807254,41.788525,2.254450,Barcelona,Catalonia,Spain
41201844675,52.046222,5.231758,Bunnik,Utrecht,Netherlands
39492826111,51.767754,-2.580139,Gloucestershire,England,United Kingdom
41046241642,46.278431,4.744709,Saone-et-Loire,Burgundy,France
40218370360,46.131277,-122.950562,Cowlitz,Washington,United States
41966545891,6.809842,-5.302062,Yamoussoukro,Lacs,Ivory Coast
39019733894,48.360000,-68.779723,Rimouski-Neigette,Quebec,Canada
39566191224,41.901031,12.483247,Rome,Lazio,Italy
41816908404,44.329589,-74.125914,Franklin,New York,United States
39290051530,51.845861,3.978950,Goeree-Overflakkee,South Holland,Netherlands
42711303442,42.176946,2.782884,Gerona,Catalonia,Spain
26525225448,41.901901,12.466435,Rome,Lazio,Italy
39813478092,41.277711,-72.418714,Middlesex,Connecticut,United States
41474251672,50.423242,-3.561973,Devon,England,United Kingdom
28251081158,34.670597,33.038350,Devon,Limassol District,Cyprus
8070193686,52.430229,13.166706,Devon,Berlin,Germany
26551280818,45.423232,7.033992,Savoy,Rhone-Alpes,France
27777560058,40.704712,-73.990326,Brooklyn,New York,United States
32791229036,64.252090,-14.977326,Brooklyn,Auster-Skaftafellssysla,Iceland
39296869524,37.428340,-122.166498,Santa Clara,California,United States
39479347981,48.360755,-68.797898,Rimouski-Neigette,Quebec,Canada
28264010119,44.120754,4.084780,Gard,Languedoc-Roussillon,France
38722082830,51.208374,3.227984,Bruges,West-Vlaanderen,Belgium
27700962399,51.129545,2.651567,Veurne,West-Vlaanderen,Belgium
39236283030,34.672705,33.044213,Veurne,Limassol District,Cyprus
41475254082,53.463091,-9.799547,Veurne,Galway,Ireland
39800740980,67.945378,13.130346,Moskenes Kommune,Nordland,Norway
41754100962,58.422662,8.774299,Arendal Kommune,Aust-Agder Fylke,Norway
40511129440,49.905739,9.306331,Aschaffenburg,Bavaria,Germany
42137297532,25.168928,121.441347,Tamsui District,New Taipei City,Taiwan
40082315850,48.857783,2.339358,Paris,Ile-de-France,France
26728180597,34.672263,33.045883,Paris,Limassol District,Cyprus
41161781105,47.413684,0.985937,Indre-et-Loire,Centre region,France
40333164251,5.784591,103.017640,Kuala Terengganu,Terengganu,Malaysia
27680592187,48.148221,-4.272866,Finistere,Brittany,France
40167041842,52.738000,5.143554,Finistere,North Holland,Netherlands
38912090975,-33.857257,151.209855,Finistere,New South Wales,Australia
28037284848,52.747088,5.184044,Medemblik,North Holland,Netherlands
40419008435,50.345332,4.846301,Dinant,Namur,Belgium
39602127655,29.116924,-13.552354,Las Palmas,Canary Islands,Spain
40571431771,39.370722,16.509017,Cosenza,Calabria,Italy
42688281382,-2.792253,111.869916,Kotawaringin Barat,Central Kalimantan,Indonesia
32122657420,44.808786,12.240046,Ferrara,Emilia Romagna,Italy
28142988198,41.893695,12.483987,Rome,Lazio,Italy
40513693161,5.942533,80.462944,Matara,Southern,Sri Lanka
36718972350,49.708288,0.198987,Seine-Maritime,Upper Normandy,France
40921269000,52.172025,5.091430,Wijdemeren,North Holland,Netherlands
41091389714,58.424260,8.783054,Arendal Kommune,Aust-Agder Fylke,Norway
40874063724,43.623129,-70.207743,Cumberland,Maine,United States
39878422835,48.840811,2.373282,Paris,Ile-de-France,France
40872514234,36.926703,14.729833,Ragusa,Sicily,Italy
41069617414,58.422662,8.774299,Arendal Kommune,Aust-Agder Fylke,Norway
40773748052,68.481940,15.534667,Arendal Kommune,Aust-Agder Fylke,Norway
40412721682,28.094805,-17.342162,Santa Cruz de Tenerife,Canary Islands,Spain
41450438272,43.697044,7.284793,Alpes-Maritimes,Provence-Alpes-Cote d'Azur,France
42053221824,49.886519,6.943295,Bernkastel-Wittlich,Rhineland-Palatinate,Germany
24590339727,19.639791,-155.996906,Hawaii,Hawaii,United States
38756903275,58.432397,5.870507,Eigersund Kommune,Rogaland,Norway
26022899367,52.696895,4.931616,Opmeer,North Holland,Netherlands
25934615857,36.926703,14.729833,Ragusa,Sicily,Italy
42113048222,48.997927,8.402925,Stadtkreis Karlsruhe,Baden-Wurttemberg,Germany
40646552260,28.111469,-17.106262,Santa Cruz de Tenerife,Canary Islands,Spain
24942486067,39.017308,26.569432,North Aegean,Aegean,Greece
25472447567,53.071640,-4.059405,North Aegean,Wales,United Kingdom
27119995568,15.858492,120.985840,Nueva Ecija,Central Luzon,Philippines
28001562168,52.746612,5.181373,Medemblik,North Holland,Netherlands
41887836171,36.926703,14.729833,Ragusa,Sicily,Italy
40396770482,48.257615,-4.623656,Finistere,Brittany,France
41764773732,50.063489,-5.714156,Cornwall and Isles of Scilly,England,United Kingdom
40952944304,60.822730,10.677144,Gjovik Kommune,Oppland Fylke,Norway
32122980034,44.870265,12.440639,Rovigo,Veneto,Italy
41390477265,63.531507,-19.512223,Rovigo,Rangarvallasysla,Iceland
40093854014,56.647833,-4.867061,Highland,Scotland,United Kingdom
41865616421,36.926703,14.729833,Ragusa,Sicily,Italy
40912416004,36.926703,14.729833,Ragusa,Sicily,Italy
39700176132,65.837721,-16.408424,Ragusa,Nordur-Tingeyjarsysla,Iceland
28039786039,39.796760,3.105578,Balearic Islands,Balearic Islands,Spain
28040690648,56.402124,-5.025730,Argyll and Bute,Scotland,United Kingdom
26320639618,17.256564,-92.114900,Chilon,Chiapas,Mexico
41376796195,58.497261,8.723316,Arendal Kommune,Aust-Agder Fylke,Norway
42743697411,33.442185,-79.180355,Georgetown,South Carolina,United States
25802953918,41.483547,-72.341753,Middlesex,Connecticut,United States
40388104620,34.670199,33.038786,Middlesex,Limassol District,Cyprus
23834272368,41.883160,16.184449,Foggia,Puglia,Italy
42041027384,55.743552,37.608368,Moskva Raion,Moscow Federal City,Russia
25912486337,36.926703,14.729833,Ragusa,Sicily,Italy
42217155034,55.979663,-3.609180,West Lothian,Scotland,United Kingdom
40109622825,48.794595,9.665050,Ostalbkreis,Baden-Wurttemberg,Germany
39701957832,41.954166,-72.877778,Hartford,Connecticut,United States
26259396977,61.335762,5.326781,Fjaler,Sogn og Fjordane,Norway
24618078017,33.416930,-117.618150,Orange,California,United States
40378798530,53.544534,8.569175,Stadtkreis Bremerhaven,Bremen,Germany
25909778238,52.251976,6.151013,Deventer,Overyssel,Netherlands
26912219097,36.926703,14.729833,Ragusa,Sicily,Italy
39345071034,46.981891,3.149471,Nievre,Burgundy,France
39846370752,45.686875,10.098195,Brescia,Lombardy,Italy
40516198441,36.926703,14.729833,Ragusa,Sicily,Italy
39201776940,63.879390,-19.885253,Ragusa,Arnessysla,Iceland
41334736814,60.822992,10.678796,Gjovik Kommune,Oppland Fylke,Norway
25749660697,37.459977,-106.140145,Gjovik Kommune,Colorado,United States
42204871821,52.405980,5.021433,Amsterdam,North Holland,Netherlands
38952103635,52.773655,5.063366,Medemblik,North Holland,Netherlands
28321994308,28.125755,-17.222700,Santa Cruz de Tenerife,Canary Islands,Spain
41865538264,50.583000,3.884096,Ath,Hainault,Belgium
41168673194,54.447985,-2.990341,Cumbria,England,United Kingdom
25632014587,66.026668,-16.488590,Cumbria,Nordur-Tingeyjarsysla,Iceland
42283056232,44.653314,-124.060428,Lincoln,Oregon,United States
41420886985,44.220338,-74.437447,Franklin,New York,United States
25331027097,54.360591,-3.293506,Cumbria,England,United Kingdom
41808219112,52.745217,5.182414,Medemblik,North Holland,Netherlands
26430279707,26.954647,75.843043,Jaipur,Rajasthan,India
39598132985,23.209165,105.414161,Huyện Mèo Vạc,Ha Giang,Vietnam
38985825444,41.954166,-72.877778,Hartford,Connecticut,United States
40357526382,52.761405,5.118684,Medemblik,North Holland,Netherlands
42040739435,47.787037,13.036136,Salzburg,Salzburg,Austria
27289305257,18.323313,-64.920787,Charlotte Amalie,Saint Thomas Island,US Virgin Islands
25536463597,45.433409,12.340543,Venice,Veneto,Italy
40265376724,54.040833,-6.185278,Venice,Louth,Ireland
28739518988,28.101255,-17.347242,Santa Cruz de Tenerife,Canary Islands,Spain
42122828081,53.553732,8.559894,Stadtkreis Bremerhaven,Bremen,Germany
41212359142,61.757215,16.865301,Hudiksvall,Gavleborg,Sweden
26930304557,39.227466,9.189720,Cagliari,Sardinia,Italy
40991624205,39.227466,9.189720,Cagliari,Sardinia,Italy
38906747504,51.451867,20.475082,Opoczno County,Lodz,Poland
39129072495,52.728939,5.107097,Medemblik,North Holland,Netherlands
25504106077,69.385631,17.099533,Torsken,Troms Fylke,Norway
39649098994,36.926703,14.729833,Ragusa,Sicily,Italy
38747735670,24.927073,110.487442,Guilin,Guangxi,China
41097187001,47.868574,16.838006,Neusiedl am See District,Burgenland,Austria
39763589831,28.137942,-15.437024,Las Palmas,Canary Islands,Spain
40650399324,32.744042,-16.686354,Machico,Madeira Islands,Portugal
39281480800,36.926703,14.729833,Ragusa,Sicily,Italy
39951169410,36.926703,14.729833,Ragusa,Sicily,Italy
42294469612,36.926703,14.729833,Ragusa,Sicily,Italy
28941718608,57.631279,-6.286432,Highland,Scotland,United Kingdom
42375482402,52.738191,5.093708,Medemblik,North Holland,Netherlands
41717257032,52.746612,5.181373,Medemblik,North Holland,Netherlands
40497960382,53.546108,10.002139,Stadtkreis Hamburg,Hamburg,Germany
40223745090,52.746972,5.181512,Medemblik,North Holland,Netherlands
27729635748,52.747088,5.184044,Medemblik,North Holland,Netherlands
38850030325,46.413054,6.929283,Vevey,Canton of Vaud,Switzerland
39479351711,48.355075,-68.789384,Rimouski-Neigette,Quebec,Canada
25800676377,36.926703,14.729833,Ragusa,Sicily,Italy
41635983292,52.746612,5.181373,Medemblik,North Holland,Netherlands
42081171234,54.525097,9.700927,Rendsburg-Eckernforde,Schleswig-Holstein,Germany
28298467119,27.967806,-82.829232,Pinellas,Florida,United States
25788376198,60.676709,-137.358455,Yukon Territory,Yukon Territory,Canada
25642885848,51.236127,2.915582,Ostend,West-Vlaanderen,Belgium
42348586571,48.856498,2.344636,Paris,Ile-de-France,France
28039658259,40.903474,-4.028055,Segovia,Castille and Leon,Spain
40488834405,50.459829,4.865827,Namur,Namur,Belgium
38579471110,42.115808,-86.492309,Berrien,Michigan,United States
28423047608,61.667232,7.243766,Luster Kommune,Sogn og Fjordane,Norway
28795522358,55.860001,-4.252524,Glasgow City,Scotland,United Kingdom
40098469712,54.360591,-3.293506,Cumbria,England,United Kingdom
39182617285,41.114925,20.790419,Cumbria,Ohrid Municipality,Macedonia
42428445311,54.561479,-2.947626,Cumbria,England,United Kingdom
42158716822,34.671269,33.044002,Cumbria,Limassol District,Cyprus
39751633800,36.926703,14.729833,Ragusa,Sicily,Italy
27179893008,52.710313,4.817504,Langedijk,North Holland,Netherlands
42458624022,54.506299,-2.927391,Cumbria,England,United Kingdom
41642343531,52.746587,5.181276,Medemblik,North Holland,Netherlands
40315559064,43.328319,3.042229,Herault,Languedoc-Roussillon,France
27826522198,36.926703,14.729833,Ragusa,Sicily,Italy
40072746905,51.906102,4.493558,Rotterdam,South Holland,Netherlands
25925864557,70.140364,14.771118,Andoy Kommune,Nordland,Norway
28467568168,54.392444,-3.277580,Cumbria,England,United Kingdom
41385051434,28.645283,-80.938223,Brevard,Florida,United States
41598746414,41.377588,2.057163,Barcelona,Catalonia,Spain
27956210007,44.278269,-74.000043,Essex,New York,United States
40794398645,36.926703,14.729833,Ragusa,Sicily,Italy
42425845011,34.669688,33.039813,Ragusa,Limassol District,Cyprus
40597650031,50.462266,4.874324,Namur,Namur,Belgium
42755420392,18.354041,-65.040528,West End,Saint Thomas Island,US Virgin Islands
40587173731,52.749211,5.139327,West End,North Holland,Netherlands
26737866728,50.877182,1.631898,Pas-de-Calais,Nord-Pas-de-Calais,France
41918646025,53.546357,10.002107,Stadtkreis Hamburg,Hamburg,Germany
41019204884,36.926703,14.729833,Ragusa,Sicily,Italy
41963452352,34.671336,33.043919,Ragusa,Limassol District,Cyprus
27809904838,38.153997,23.222351,Attica,Attica,Greece
41549868112,36.124502,-115.170298,Clark,Nevada,United States
40250271022,59.079750,10.875644,Hvaler Kommune,Ostfold,Norway
41485507515,36.926703,14.729833,Ragusa,Sicily,Italy
40794419710,40.339905,-75.171783,Bucks,Pennsylvania,United States
42806506181,37.279255,-122.408863,San Mateo,California,United States
27108144157,51.611380,22.446172,Lubartow County,Lublin,Poland
40543292390,44.653527,-124.058067,Lincoln,Oregon,United States
39449165252,48.360772,-68.797914,Rimouski-Neigette,Quebec,Canada
38582483500,50.932969,-118.190596,Columbia-Shuswap,British Columbia,Canada
41819262714,51.775833,3.863055,Goeree-Overflakkee,South Holland,Netherlands
28272452899,37.695842,-119.725656,Mariposa,California,United States
27064258467,16.222461,-61.381939,Ste Anne,Pointe-A-Pitre,Guadeloupe
27103762227,61.753996,16.913280,Hudiksvall,Gavleborg,Sweden
40385669900,36.926703,14.729833,Ragusa,Sicily,Italy
38740093024,50.712615,18.108301,Opole County,Opole,Poland
39378592415,58.133907,14.558236,Odeshog,Ostergotland,Sweden
26842766017,19.465054,105.811386,Huyện Tĩnh Gia,Thanh Hoa,Vietnam
39433215651,49.215719,12.169825,Ratisbon,Bavaria,Germany
40279866520,48.336587,-4.614701,Finistere,Brittany,France
26871208798,42.649206,18.114781,Dubrovnik,Dubrovnik-Neretva,Croatia
26759955457,54.426195,-3.319802,Cumbria,England,United Kingdom
27013120907,44.355891,9.152026,Genoa,Liguria,Italy
27396553277,18.335255,-64.848306,East End,Saint Thomas Island,US Virgin Islands
41770114651,45.769686,-71.941974,Asbestos,Quebec,Canada
26992162157,68.006671,13.203506,Flakstad Kommune,Nordland,Norway
27386584077,36.926703,14.729833,Ragusa,Sicily,Italy
27750452508,54.595563,-3.141403,Cumbria,England,United Kingdom
41762874674,34.674289,33.047239,Cumbria,Limassol District,Cyprus
41259444884,52.746932,5.182371,Medemblik,North Holland,Netherlands
41645430265,18.352591,-65.040153,West End,Saint Thomas Island,US Virgin Islands
41116822615,36.926703,14.729833,Ragusa,Sicily,Italy
41878794905,41.111288,20.802440,Ragusa,Ohrid Municipality,Macedonia
41888001185,53.701794,7.142196,Landkreis Aurich,Lower Saxony,Germany
39823233371,53.384352,-1.680564,Derbyshire,England,United Kingdom
39634188182,1.286938,103.854671,Derbyshire,Central Singapore,Singapore
27742424098,40.316651,-76.887452,Dauphin,Pennsylvania,United States
39367858810,45.660621,10.064590,Brescia,Lombardy,Italy
41445442081,52.733863,4.824843,Hollands Kroon,North Holland,Netherlands
26743099417,36.122791,-115.170498,Clark,Nevada,United States
27871504758,25.297111,83.007287,Varanasi,Uttar Pradesh,India
40965475950,54.507728,-2.927169,Cumbria,England,United Kingdom
39321850370,44.566702,2.042360,Aveyron,Midi-Pyrenees,France
40791957161,44.016494,-77.731423,Northumberland,Ontario,Canada
42264270122,34.681727,33.054994,Northumberland,Limassol District,Cyprus
39794853945,59.900991,10.750637,Bydel Gamle-oslo,Oslo Fylke,Norway
42057239161,36.926703,14.729833,Ragusa,Sicily,Italy
26051290527,51.364653,7.618439,Markischer Kreis,North Rhine-Westphalia,Germany
36733380063,49.707830,0.200328,Seine-Maritime,Upper Normandy,France
38921127050,41.910111,19.232091,Seine-Maritime,Ulcinj,Montenegro
25321874617,17.256564,-92.114900,Chilon,Chiapas,Mexico
40364347871,40.101316,-5.211639,Avila,Castille and Leon,Spain
38756905290,61.757215,16.865301,Hudiksvall,Gavleborg,Sweden
41118938895,36.926703,14.729833,Ragusa,Sicily,Italy
24645280377,52.932125,5.046458,Hollands Kroon,North Holland,Netherlands
41668937125,40.316798,-76.887602,Dauphin,Pennsylvania,United States
41244510754,28.355382,-81.403015,Orange,Florida,United States
39788010145,65.675727,-17.553062,Orange,Sudur-Tingeyjarsysla,Iceland
28004328279,40.645693,14.702453,Salerno,Campania,Italy
25136447597,51.915788,4.396544,Schiedam,South Holland,Netherlands
39230704164,57.701627,-2.847589,Moray,Scotland,United Kingdom
39953385600,54.567048,-3.130019,Cumbria,England,United Kingdom
41972345292,64.045184,-16.173119,Cumbria,Auster-Skaftafellssysla,Iceland
39816650251,39.161951,-119.933280,Cumbria,Nevada,United States
40062059510,57.705981,-2.859706,Moray,Scotland,United Kingdom
42721514832,38.785510,-9.091819,Lisbon,Lisbon,Portugal
42807646951,61.757215,16.865301,Hudiksvall,Gavleborg,Sweden
28397723388,34.674360,33.047003,Hudiksvall,Limassol District,Cyprus
40557283000,36.926703,14.729833,Ragusa,Sicily,Italy
41318144624,56.517741,-4.713478,Argyll and Bute,Scotland,United Kingdom
38958857335,53.112641,-6.260562,Argyll and Bute,Wicklow,Ireland
25900975307,52.367286,4.889802,Amsterdam,North Holland,Netherlands
40748475295,50.462112,4.875440,Namur,Namur,Belgium
38968644055,45.662472,5.857257,Savoy,Rhone-Alpes,France
41567788654,18.335255,-64.848306,East End,Saint Thomas Island,US Virgin Islands
40628423581,59.079138,10.874311,Hvaler Kommune,Ostfold,Norway
27256427437,19.943206,-155.870246,Hawaii,Hawaii,United States
38815667015,53.239947,-9.494934,Hawaii,Galway,Ireland
41800129895,19.465054,105.811386,Huyện Tĩnh Gia,Thanh Hoa,Vietnam
27913791819,53.325234,-1.652755,Derbyshire,England,United Kingdom
24857650157,39.379027,-0.323538,Valencia,Valencia,Spain
41168227125,28.043416,-81.951913,Polk,Florida,United States
40236065735,50.462920,3.621025,Nord,Nord-Pas-de-Calais,France
42750400942,39.458529,-0.353965,Valencia,Valencia,Spain
25948494397,50.458793,3.619995,Nord,Nord-Pas-de-Calais,France
28060735228,36.926703,14.729833,Ragusa,Sicily,Italy
39792091391,40.704196,-73.990838,Brooklyn,New York,United States
40912679354,54.065823,-2.136690,North Yorkshire,England,United Kingdom
25777623807,52.859877,5.102934,Hollands Kroon,North Holland,Netherlands
40588546942,23.241819,105.413646,Huyện Mèo Vạc,Ha Giang,Vietnam
42153654072,18.322597,-64.921748,Charlotte Amalie,Saint Thomas Island,US Virgin Islands
24827782427,28.024361,34.436641,Charlotte Amalie,South Sinai,Egypt
42759472881,50.582864,3.884353,Ath,Hainault,Belgium
41934990202,54.428710,-3.091213,Cumbria,England,United Kingdom
41627964825,50.583000,3.884310,Ath,Hainault,Belgium
27106766037,64.120194,-20.797119,Ath,Arnessysla,Iceland
41259969315,32.910721,-117.276992,San Diego,California,United States
25852394427,66.260386,29.416500,Koillismaan,Northern Ostrobothnia,Finland
41454568074,53.105720,-3.992360,Koillismaan,Wales,United Kingdom
40368594380,54.071640,-1.964621,North Yorkshire,England,United Kingdom
42025943804,18.323302,-64.920803,Charlotte Amalie,Saint Thomas Island,US Virgin Islands
41188283794,36.926703,14.729833,Ragusa,Sicily,Italy
41922408131,46.362478,14.083743,Bled,Radovljica,Slovenia
41838875455,41.111886,20.796861,Bled,Ohrid Municipality,Macedonia
37658393466,41.945804,15.999355,Foggia,Puglia,Italy
41517692145,18.352455,-65.040081,West End,Saint Thomas Island,US Virgin Islands
42014133782,36.926703,14.729833,Ragusa,Sicily,Italy
41436206471,47.605671,10.682101,Ostallgau,Bavaria,Germany
25974357987,50.091463,14.415011,Prague,Prague,Czech Republic
39627082281,50.089945,14.406487,Prague,Prague,Czech Republic
26906566838,49.710860,31.593051,Prague,Cherkasy Oblast,Ukraine
41537851722,45.664338,5.854682,Savoy,Rhone-Alpes,France
40872581265,45.887785,9.142867,Como,Lombardy,Italy
39967779850,43.256213,2.953868,Aude,Languedoc-Roussillon,France
39859030100,48.223872,16.416234,Vienna,Vienna,Austria
27974228068,52.389269,17.946919,Slupca County,Greater Poland,Poland
39719372834,63.615723,-19.991211,Slupca County,Rangarvallasysla,Iceland
41656599435,34.669688,33.039813,Slupca County,Limassol District,Cyprus
39664971681,35.607347,-83.829117,Blount,Tennessee,United States
28866571698,44.663818,-1.173659,Gironde,Aquitaine,France
41709069114,50.582437,3.887872,Ath,Hainault,Belgium
41559115072,36.926703,14.729833,Ragusa,Sicily,Italy
42062700732,36.926703,14.729833,Ragusa,Sicily,Italy
25299814607,51.970361,5.349105,Wijk bij Duurstede,Utrecht,Netherlands
40677434652,37.849510,-122.480220,Marin,California,United States
27988315818,53.103420,-4.071378,Gwynedd,Wales,United Kingdom
41626844822,39.800095,18.367424,Lecce,Puglia,Italy
42281749082,25.186845,110.404872,Guilin,Guangxi,China
41172884454,57.558308,-5.392570,Highland,Scotland,United Kingdom
40936156872,53.259668,-9.131183,Highland,Galway,Ireland
41356976834,46.832394,9.320912,Imboden District,Canton of Graubunden,Switzerland
26414631068,47.545373,12.975625,Berchtesgadener Land,Bavaria,Germany
40109425470,28.576423,-80.998249,Orange,Florida,United States
26974901877,39.774680,3.143267,Balearic Islands,Balearic Islands,Spain
40450687555,36.926703,14.729833,Ragusa,Sicily,Italy
41602900634,47.343075,14.661463,Knittelfeld District,Styria,Austria
42481693262,50.354299,-4.450149,Cornwall and Isles of Scilly,England,United Kingdom
41601440185,18.354919,-65.040923,West End,Saint Thomas Island,US Virgin Islands
39579429702,-55.802631,-67.573471,Antartica Chilena Province,Magallanes and Antartica Chilena Region,Chile
27514164117,36.926703,14.729833,Ragusa,Sicily,Italy
40540594025,57.666824,-5.450677,Highland,Scotland,United Kingdom
27448149319,49.708357,0.199470,Seine-Maritime,Upper Normandy,France
25002182017,35.682200,139.733819,Seine-Maritime,Tokyo Prefecture,Japan
27555994727,51.610027,22.437219,Lubartow County,Lublin,Poland
41831778975,25.117294,121.861488,Ruifang District,New Taipei City,Taiwan
39653249781,49.635001,5.345964,Virton,Luxemburg,Belgium
41761346804,18.352486,-65.040348,West End,Saint Thomas Island,US Virgin Islands
25651708788,50.451192,4.821267,Namur,Namur,Belgium
40273494430,36.926703,14.729833,Ragusa,Sicily,Italy
41271128291,36.926703,14.729833,Ragusa,Sicily,Italy
39900706445,61.527441,23.930883,Tampereen,Pirkanmaa,Finland
26399535077,41.111380,20.788822,Tampereen,Ohrid Municipality,Macedonia
41375310775,36.926703,14.729833,Ragusa,Sicily,Italy
39943050891,45.154167,12.329535,Venice,Veneto,Italy
27494416807,39.258031,-75.461118,Kent,Delaware,United States
27082785078,49.854863,6.445444,Bitburg-Prum,Rhineland-Palatinate,Germany
41431658505,18.357569,-64.939028,Northside,Saint Thomas Island,US Virgin Islands
41031144752,53.491376,-2.357158,Greater Manchester,England,United Kingdom
41159537255,53.137074,-4.063224,Gwynedd,Wales,United Kingdom
28868486358,34.872825,32.341829,Gwynedd,Paphos District,Cyprus
27974358867,37.176290,-122.373147,San Mateo,California,United States
40132438660,28.574915,-80.998935,Orange,Florida,United States
41210139994,36.926703,14.729833,Ragusa,Sicily,Italy
42323786742,68.104026,13.287255,Flakstad Kommune,Nordland,Norway
27701990128,32.579997,-117.128378,San Diego,California,United States
28402696099,45.657619,5.858802,Savoy,Rhone-Alpes,France
27620977218,20.605471,105.773792,Mỹ Đức,Hanoi,Vietnam
40717301050,37.267499,-122.411298,San Mateo,California,United States
41030040925,37.846577,-119.422198,Mariposa,California,United States
40046448112,39.264872,3.053147,Balearic Islands,Balearic Islands,Spain
39175408970,51.798888,-3.365507,Merthyr Tydfil County Borough,Wales,United Kingdom
41912251665,36.926703,14.729833,Ragusa,Sicily,Italy
42518632282,18.335255,-64.848306,East End,Saint Thomas Island,US Virgin Islands
42524459321,18.355005,-65.040878,West End,Saint Thomas Island,US Virgin Islands
41870959795,50.583708,3.886113,Ath,Hainault,Belgium
40947981415,36.926703,14.729833,Ragusa,Sicily,Italy
27772939048,19.465054,105.811386,Huyện Tĩnh Gia,Thanh Hoa,Vietnam
41939580464,18.322247,-64.921653,Charlotte Amalie,Saint Thomas Island,US Virgin Islands
28193842509,45.068550,7.708024,Turin,Piedmont,Italy
26671793868,37.308211,-122.405440,San Mateo,California,United States
41459339225,54.385197,-3.275649,Cumbria,England,United Kingdom
42382583252,36.926703,14.729833,Ragusa,Sicily,Italy
27043457917,37.787725,-122.493095,San Francisco,California,United States
40634267590,18.351830,-65.040159,West End,Saint Thomas Island,US Virgin Islands
27624288058,50.440707,4.860076,Namur,Namur,Belgium
41642453384,27.590701,89.865760,Toewang,Punakha,Bhutan
28064652679,45.023515,14.586045,Krk,Primorsko-Goranska,Croatia
42385261592,25.186845,110.404872,Guilin,Guangxi,China
26833377007,57.563465,-5.382957,Highland,Scotland,United Kingdom
41008370415,48.214121,16.376388,Vienna,Vienna,Austria
24625474617,53.546064,10.001989,Stadtkreis Hamburg,Hamburg,Germany
40409381841,19.848193,-90.539467,Campeche,Campeche,Mexico
28951996488,18.352988,-65.040787,West End,Saint Thomas Island,US Virgin Islands
28636399858,36.926703,14.729833,Ragusa,Sicily,Italy
42376972642,36.926703,14.729833,Ragusa,Sicily,Italy
26735737578,59.328007,18.067166,Stockholm Kommun,Stockholm,Sweden
24225005567,39.739715,-75.224796,Gloucester,New Jersey,United States
26994899927,61.757215,16.865301,Hudiksvall,Gavleborg,Sweden
41833827081,53.133795,-1.816434,Derbyshire,England,United Kingdom
28119820578,53.101727,-4.002447,Gwynedd,Wales,United Kingdom
40188238421,25.162376,121.730704,Jhongshan District,Keelung City,Taiwan
27105302307,36.926703,14.729833,Ragusa,Sicily,Italy
40254101420,1.286908,103.854378,Ragusa,Central Singapore,Singapore
38900752685,68.026109,13.180160,Flakstad Kommune,Nordland,Norway
41204577274,50.541799,-3.892593,Devon,England,United Kingdom
41356772055,51.114259,17.040116,Wroclaw,Lower Silesia,Poland
27887644438,64.857398,-22.654838,Wroclaw,Snaefellsnesog Hnappadalssysla,Iceland
42693979442,28.574781,-80.998935,Orange,Florida,United States
25719336467,51.883884,4.641466,Orange,South Holland,Netherlands
27142052597,43.239877,-79.958399,Hamilton,Ontario,Canada
42174494674,59.035122,10.946944,Hvaler Kommune,Ostfold,Norway
38675363915,25.123177,121.880135,Ruifang District,New Taipei City,Taiwan
27760783018,56.540253,-4.779138,Argyll and Bute,Scotland,United Kingdom
40746436430,50.582973,3.884310,Ath,Hainault,Belgium
27399301897,37.806817,-122.448098,San Francisco,California,United States
24782602007,48.343699,2.780528,Seine-et-Marne,Ile-de-France,France
41548304212,45.922348,-74.665231,Les Laurentides Regional County Municipality,Quebec,Canada
25491205057,69.697043,18.619766,Tromso Kommune,Troms Fylke,Norway
40891918420,18.353013,-64.927037,Northside,Saint Thomas Island,US Virgin Islands
28039758269,43.846159,-78.958396,Durham,Ontario,Canada
28907277608,54.557381,-0.793848,North Yorkshire,England,United Kingdom
27461612147,47.705494,9.195566,Constance,Baden-Wurttemberg,Germany
40142877500,50.841972,4.388179,Brussel Hoofdstad,Capital Region of Brussels,Belgium
27792948129,-45.025494,168.651123,Queenstown Lakes District,Otago,New Zealand
39976619860,68.400064,14.537143,Hadsel Kommune,Nordland,Norway
42685228642,54.559023,-0.793075,North Yorkshire,England,United Kingdom
39517148741,25.209406,121.430211,Tamsui District,New Taipei City,Taiwan
40836100460,50.582564,3.886113,Ath,Hainault,Belgium
40980844924,52.101613,-10.455967,Ath,Kerry,Ireland
27983647918,51.911019,4.496144,Rotterdam,South Holland,Netherlands
25130879897,51.507222,4.320277,Bergen op Zoom,North Brabant,Netherlands
40879533805,36.926703,14.729833,Ragusa,Sicily,Italy
27087567167,50.847121,4.358482,Brussel Hoofdstad,Capital Region of Brussels,Belgium
27235454287,18.845992,-19.177734,Brussel Hoofdstad,Capital Region of Brussels,Belgium
27541717178,37.571147,-122.516398,San Mateo,California,United States
27450823327,53.102544,-3.921432,Conwy County Borough,Wales,United Kingdom
41891509792,68.198097,13.527163,Vestvagoy Kommune,Nordland,Norway
40892835090,40.315690,-76.887098,Dauphin,Pennsylvania,United States
40716363150,40.318100,-76.888203,Dauphin,Pennsylvania,United States
41152115154,37.601244,-122.497558,San Mateo,California,United States
27149883107,55.683681,12.600975,Copenhagen,Hovedstaden,Denmark
28066143588,37.420889,-122.435374,San Mateo,California,United States
40988104485,36.926703,14.729833,Ragusa,Sicily,Italy
41183968155,37.806647,-122.448731,San Francisco,California,United States
41480964235,36.462080,25.380520,South Aegean,Aegean,Greece
42541862831,61.753996,16.913280,Hudiksvall,Gavleborg,Sweden
39031699095,53.655169,-3.020787,Merseyside,England,United Kingdom
38466906244,45.036740,12.377471,Rovigo,Veneto,Italy
40061450950,1.290739,103.851547,Rovigo,Central Singapore,Singapore
27501469937,50.729827,-1.772146,Dorset,England,United Kingdom
27732258348,54.423905,-3.319212,Cumbria,England,United Kingdom
28343384898,53.152140,-3.952546,Conwy County Borough,Wales,United Kingdom
27597610578,53.665933,-1.964442,West Yorkshire,England,United Kingdom
27537597987,36.926703,14.729833,Ragusa,Sicily,Italy
42547402991,39.965070,-76.740478,York,Pennsylvania,United States
26474308917,51.905266,4.494875,Rotterdam,South Holland,Netherlands
40400610394,60.347294,5.208678,Bergen Kommune,Hordaland,Norway
41798283004,41.587884,-81.563723,Cuyahoga,Ohio,United States
27855470989,56.291156,12.472625,Cuyahoga,Ohio,Sweden
25760643857,50.624982,5.579509,Liege,Liege,Belgium
41471464245,18.342972,-64.930020,Charlotte Amalie,Saint Thomas Island,US Virgin Islands
40684931520,50.583218,3.884053,Ath,Hainault,Belgium
40900144540,36.926703,14.729833,Ragusa,Sicily,Italy
39776777700,51.216897,6.753788,Dusseldorf,North Rhine-Westphalia,Germany
27988250228,45.179132,-121.066589,Wasco,Oregon,United States
42368224061,54.528802,-3.253498,Cumbria,England,United Kingdom
39747420064,52.493299,-2.069159,West Midlands,England,United Kingdom
27915827747,18.323302,-64.920803,Charlotte Amalie,Saint Thomas Island,US Virgin Islands
27087291567,58.189618,-5.340524,Highland,Scotland,United Kingdom
41544637152,31.991461,-80.846042,Chatham,Georgia,United States
41004216850,53.311800,-4.042067,Anglesey County,Wales,United Kingdom
41740865501,53.463663,-9.796781,Anglesey County,Galway,Ireland
26911490637,43.452891,-90.359792,Richland,Wisconsin,United States
40023781222,60.859372,-137.063037,Yukon Territory,Yukon Territory,Canada
27921526287,50.582945,3.884568,Ath,Hainault,Belgium
39335766054,40.935558,-75.313478,Monroe,Pennsylvania,United States
40559181040,28.369910,-16.877532,Santa Cruz de Tenerife,Canary Islands,Spain
41807899854,50.582646,3.885855,Ath,Hainault,Belgium
41098338211,50.865597,4.384442,Brussel Hoofdstad,Capital Region of Brussels,Belgium
42709993951,47.091163,9.213409,Sargans,Canton of St. Gallen,Switzerland
41843382154,43.093571,-89.372212,Dane,Wisconsin,United States
41604650624,37.588628,-122.342516,San Mateo,California,United States
40855691321,40.702992,-73.995881,Brooklyn,New York,United States
41490106824,46.510158,12.015609,Belluno,Veneto,Italy
40564879920,53.084608,-4.336166,Gwynedd,Wales,United Kingdom
41258052261,53.524961,9.928185,Stadtkreis Hamburg,Hamburg,Germany
41830320951,3.155820,101.713576,Kuala Lumpur,Kuala Lumpur,Malaysia
25942290038,59.323557,18.083839,Stockholm Kommun,Stockholm,Sweden
41712240842,45.570445,5.807304,Savoy,Rhone-Alpes,France
41164720645,43.239572,-79.958313,Hamilton,Ontario,Canada
40722491452,51.715930,12.460598,Wittenberg,Saxony-Anhalt,Germany
25798038937,52.461343,5.137052,Waterland,North Holland,Netherlands
42752057791,50.583218,3.884439,Ath,Hainault,Belgium
39443036884,48.235650,16.430740,Vienna,Vienna,Austria
27136754188,60.151384,24.946882,Helsingin,Uusimaa,Finland
41878677912,52.868691,-1.344795,Leicestershire,England,United Kingdom
38594398925,51.219858,3.235473,Bruges,West-Vlaanderen,Belgium
41568001542,-39.857875,-71.918895,Valdivia Province,Los Rios Region,Chile
39601952490,43.388578,-2.992677,Biscay,Basque Country,Spain
39452905620,13.746763,100.568032,Biscay,Bangkok,Thailand
37669774271,45.144273,12.295417,Rovigo,Veneto,Italy
42164350202,36.926703,14.729833,Ragusa,Sicily,Italy
40450838590,51.611022,22.435063,Lubartow County,Lublin,Poland
25342504907,55.896352,-4.407330,Lubartow County,Scotland,United Kingdom
41573397775,37.610457,-122.496786,San Mateo,California,United States
26961012307,51.702872,4.163530,Goeree-Overflakkee,South Holland,Netherlands
41320078022,51.920277,4.490277,Rotterdam,South Holland,Netherlands
40732677250,54.330176,-3.095676,Cumbria,England,United Kingdom
28879695238,53.120813,-4.114637,Gwynedd,Wales,United Kingdom
41411472894,36.926703,14.729833,Ragusa,Sicily,Italy
26542389047,51.907222,4.498888,Rotterdam,South Holland,Netherlands
40131377051,46.906169,3.047139,Cher,Centre region,France
40688882461,55.895913,-4.408178,Cher,Scotland,United Kingdom
25778870888,34.958092,33.836807,Cher,Larnaca District,Cyprus
27760922787,28.043543,-81.951570,Polk,Florida,United States
39468264952,44.166269,-77.376762,Hastings,Ontario,Canada
40630356344,45.439010,12.319600,Venice,Veneto,Italy
28296907408,36.926703,14.729833,Ragusa,Sicily,Italy
39435384094,16.193677,-92.270886,Tzimol,Chiapas,Mexico
25404774637,39.732653,-104.960675,Denver,Colorado,United States
42305288832,18.342986,-64.930148,Charlotte Amalie,Saint Thomas Island,US Virgin Islands
39886884194,37.759279,-119.654846,Charlotte Amalie,California,United States
40865934632,43.136067,12.050628,Perugia,Umbria,Italy
39487783291,37.823141,-122.479362,San Francisco,California,United States
41484789794,40.084310,22.404212,Central Macedonia,Macedonia and Thrace,Greece
42119932274,56.402059,-5.026223,Argyll and Bute,Scotland,United Kingdom
39781635951,48.601608,8.396902,Freudenstadt,Baden-Wurttemberg,Germany
39540437315,34.765393,-83.519306,Rabun,Georgia,United States
41002846102,54.522451,-1.546143,County Durham,England,United Kingdom
42382314911,47.697169,9.040546,Constance,Baden-Wurttemberg,Germany
41132165885,51.736327,4.092666,Goeree-Overflakkee,South Holland,Netherlands
41580460521,36.916080,21.695122,Peloponnese,Peloponnese Western Greece and the Ionian Island,Greece
39626680062,1.288747,103.855733,Peloponnese,Central Singapore,Singapore
40460439752,-36.725436,-56.672565,La Costa,Buenos Aires Province,Argentina
24795131227,44.805700,12.244573,Ferrara,Emilia Romagna,Italy
41993184622,36.926703,14.729833,Ragusa,Sicily,Italy
41101031554,45.877178,-123.961958,Clatsop,Oregon,United States
27829345668,51.212278,3.228220,Bruges,West-Vlaanderen,Belgium
27932179348,36.926703,14.729833,Ragusa,Sicily,Italy
39142204534,37.115362,34.663152,Camliyayla,Mersin,Turkey
40553298640,40.903474,-4.028055,Segovia,Castille and Leon,Spain
38534738290,-54.850302,-68.588247,Ushuaia,Tierra del Fuego,Argentina
39791640694,51.798491,3.938377,Goeree-Overflakkee,South Holland,Netherlands
39691928180,37.935756,23.654583,Attica,Attica,Greece
41882285492,47.679041,8.616178,Schaffhausen,Canton of Schaffhausen,Switzerland
41604436424,47.366036,13.663902,Liezen District,Styria,Austria
39270504794,60.148919,18.784046,Norrtalje,Stockholm,Sweden
40706375915,51.213945,3.230752,Bruges,West-Vlaanderen,Belgium
27105582387,63.149813,14.709486,Ostersund,Jamtland,Sweden
38770662594,60.600606,17.935159,Tierp,Uppsala Lan,Sweden
26274478538,-54.830457,-68.563699,Ushuaia,Tierra del Fuego,Argentina
41110712680,41.108564,20.805938,Ushuaia,Ohrid Municipality,Macedonia
41373559065,50.228254,-5.391901,Cornwall and Isles of Scilly,England,United Kingdom
39579463952,38.692205,-9.215453,Lisbon,Lisbon,Portugal
38748166390,51.970694,5.387683,Wijk bij Duurstede,Utrecht,Netherlands
24813632697,48.832803,-3.486270,Cotes-d'Armor,Brittany,France
28336342478,65.538331,-18.073561,Cotes-d'Armor,Eyjafjardarsysla,Iceland
28335508968,58.636890,49.724400,Cotes-d'Armor,Kirov Oblast,Russia
41234615742,39.863188,-79.502425,Fayette,Pennsylvania,United States
25709174277,53.489843,-2.546081,Greater Manchester,England,United Kingdom
25900736237,51.705491,4.128708,Goeree-Overflakkee,South Holland,Netherlands
42030024574,53.709434,7.138345,Landkreis Aurich,Lower Saxony,Germany
42284332961,47.051528,8.309526,Lucerne,Canton of Lucerne,Switzerland
25682623787,50.424523,4.873123,Namur,Namur,Belgium
41163577775,22.271329,114.150170,Namur,Central and Western,Hong Kong
26883321097,51.501708,-0.136772,Greater London,England,United Kingdom
40906950211,53.279071,-1.644859,Derbyshire,England,United Kingdom
41151255704,36.926703,14.729833,Ragusa,Sicily,Italy
41035896304,40.903474,-4.028055,Segovia,Castille and Leon,Spain
40703715500,28.728241,-17.963172,Santa Cruz de Tenerife,Canary Islands,Spain
27130027928,51.908292,4.479138,Rotterdam,South Holland,Netherlands
41970052531,40.748520,-8.676978,Murtosa,Aveiro,Portugal
42319933022,25.186845,110.404872,Guilin,Guangxi,China
26238968237,52.366834,-2.726047,Shropshire,England,United Kingdom
26526085358,39.456358,-0.352571,Valencia,Valencia,Spain
38910679014,37.944396,-119.027810,Mono,California,United States
41624086372,40.424016,-1.881494,Cuenca,Castille la Mancha,Spain
28670405618,53.364996,-1.659107,South Yorkshire,England,United Kingdom
39091510485,53.905166,-9.780031,South Yorkshire,Mayo,Ireland
25636060258,44.058664,9.846003,La Spezia,Liguria,Italy
39468127611,40.571196,-73.987083,Brooklyn,New York,United States
26118361338,48.855199,2.352533,Paris,Ile-de-France,France
39635133870,58.490887,15.641376,Linkoping,Ostergotland,Sweden
26765098888,51.728572,4.063786,Goeree-Overflakkee,South Holland,Netherlands
41647262771,33.270035,-80.101876,Berkeley,South Carolina,United States
40093642464,-36.077753,-72.800650,Nuble Province,Biobio Region,Chile
27162564747,-20.272223,57.803888,Nuble Province,Flacq,Mauritius
40059697990,44.758150,-92.867312,Dakota,Minnesota,United States
41679626002,27.916795,-82.827751,Pinellas,Florida,United States
39280222035,36.160338,-121.674496,Monterey,California,United States
27986304839,60.600813,17.930974,Tierp,Uppsala Lan,Sweden
42645160661,54.559023,-0.793075,North Yorkshire,England,United Kingdom
25413625817,55.750545,37.624397,Moskva Raion,Moscow Federal City,Russia
25128205147,50.463040,4.868273,Namur,Namur,Belgium
41576427441,50.713650,18.101966,Opole County,Opole,Poland
26207438668,36.084031,-5.766620,Cadiz,Andalusia,Spain
39688998752,52.171322,5.997195,Apeldoorn,Guelders,Netherlands
26220387508,44.269665,9.394855,Genoa,Liguria,Italy
28894158268,61.292668,8.841247,Oystre Slidre Kommune,Oppland Fylke,Norway
39139511134,39.070677,-107.154487,Oystre Slidre Kommune,Colorado,United States
42662373862,54.559023,-0.793075,North Yorkshire,England,United Kingdom
39846522942,37.745145,-119.603862,Mariposa,California,United States
42696254411,42.205474,23.322987,Sapareva Banya,Kyustendil,Bulgaria
28127722828,37.570841,-122.290470,San Mateo,California,United States
41803972082,60.298721,16.911392,Sandviken,Gavleborg,Sweden
28756651958,41.587397,-81.566126,Cuyahoga,Ohio,United States
40003295450,53.138224,-1.808109,Derbyshire,England,United Kingdom
27757688948,43.768095,11.253089,Florence,Tuscany,Italy
27838167308,47.430357,-121.770797,King,Washington,United States
40831916615,42.466848,18.681221,King,Tivat,Montenegro
41304875795,46.985405,3.158054,Nievre,Burgundy,France
41811679134,47.712327,-124.416567,Jefferson,Washington,United States
41346833391,50.865847,4.384914,Brussel Hoofdstad,Capital Region of Brussels,Belgium
41412144464,47.648809,9.481995,Bodenseekreis,Baden-Wurttemberg,Germany
29026034698,41.617550,-124.109103,Del Norte,California,United States
40916664061,23.148815,-81.264109,Del Norte,Matanzas,Cuba
40943331921,51.707441,4.081661,Goeree-Overflakkee,South Holland,Netherlands
41082162104,34.501906,-77.398080,Onslow,North Carolina,United States
39034857580,40.738022,-3.817491,Madrid,Madrid,Spain
41246281825,36.926703,14.729833,Ragusa,Sicily,Italy
40876731570,45.817310,8.822750,Varese,Lombardy,Italy
25416120147,42.128444,8.632507,South Corsica,Corsica,France
39034721210,60.123141,18.784325,Norrtalje,Stockholm,Sweden
39717783435,51.123034,7.925069,Landkreis Olpe,North Rhine-Westphalia,Germany
41056582125,28.265253,-16.716030,Santa Cruz de Tenerife,Canary Islands,Spain
42142923382,36.926703,14.729833,Ragusa,Sicily,Italy
41538561794,57.893835,-6.953659,Eilean Siar,Scotland,United Kingdom
38792218584,63.620338,-20.008850,Eilean Siar,Rangarvallasysla,Iceland
40906151280,39.017308,26.569432,North Aegean,Aegean,Greece
41600031895,43.054417,-86.247332,Ottawa,Michigan,United States
42034574672,52.389269,17.946919,Slupca County,Greater Poland,Poland
24913261747,59.838794,17.656939,Uppsala,Uppsala Lan,Sweden
41776890224,51.867025,-10.386170,Uppsala,Kerry,Ireland
25954206647,51.317832,3.124129,Bruges,West-Vlaanderen,Belgium
41211269035,51.611541,22.433338,Lubartow County,Lublin,Poland
24878101517,40.133355,-5.852794,Caceres,Extremadura,Spain
40931119084,52.380052,4.640822,Haarlem,North Holland,Netherlands
40882449892,51.714319,4.091647,Goeree-Overflakkee,South Holland,Netherlands
27414512617,43.802801,15.964709,Sibenik,Šibensko-kninska,Croatia
41843129485,41.630913,-81.300662,Lake,Ohio,United States
41951932651,49.895810,7.915220,Mainz-Bingen,Rhineland-Palatinate,Germany
42567845931,51.114622,17.039237,Wroclaw,Lower Silesia,Poland
41436689702,53.400782,-1.742792,Wroclaw,England,United Kingdom
40277041690,53.092305,-3.799061,Conwy County Borough,Wales,United Kingdom
27152252407,51.908113,4.490994,Rotterdam,South Holland,Netherlands
42108906641,64.938670,-23.348693,Rotterdam,Myrasysla,Iceland
41678362412,45.429236,12.339169,Venice,Veneto,Italy
24891887557,43.117843,5.929119,Var,Provence-Alpes-Cote d'Azur,France
40952713745,53.224811,-2.163925,Cheshire,England,United Kingdom
40953436225,38.239326,-1.429338,Murcia,Murcia,Spain
39001843614,55.235912,-6.520460,Moyle,Northern Ireland,United Kingdom
42141118182,36.926703,14.729833,Ragusa,Sicily,Italy
26068881217,51.137947,6.859073,Dusseldorf,North Rhine-Westphalia,Germany
27112543927,51.757952,4.028297,Goeree-Overflakkee,South Holland,Netherlands
25816410468,37.178167,-3.587121,Granada,Andalusia,Spain
40243374500,42.397125,8.714303,Upper Corsica,Corsica,France
26450976407,50.122915,-5.473329,Cornwall and Isles of Scilly,England,United Kingdom
28690338818,34.889310,32.747583,Cornwall and Isles of Scilly,Paphos District,Cyprus
26819992237,51.910536,4.483386,Rotterdam,South Holland,Netherlands
28598993768,54.563303,-3.299674,Cumbria,England,United Kingdom
26555983977,53.653973,-9.364428,Cumbria,Mayo,Ireland
27489949327,50.583254,3.884696,Ath,Hainault,Belgium
25555979807,53.489843,-2.546081,Greater Manchester,England,United Kingdom
42072161104,59.079797,10.875563,Hvaler Kommune,Ostfold,Norway
41769004381,46.117134,-111.441439,Broadwater,Montana,United States
39568831302,50.447544,4.773194,Namur,Namur,Belgium
40714847315,51.745225,4.084769,Goeree-Overflakkee,South Holland,Netherlands
27653858509,52.873418,-1.314067,Goeree-Overflakkee,England,United Kingdom
27077922707,37.661910,-118.827900,Mono,California,United States
40064325540,37.939432,22.168586,West Greece,Peloponnese Western Greece and the Ionian Island,Greece
27085855497,39.600166,-106.116256,Summit,Colorado,United States
28813581098,44.661626,1.832815,Lot,Midi-Pyrenees,France
39789990370,43.611988,-8.194180,Corunna,Galicia,Spain
25701303508,43.142706,6.384601,Var,Provence-Alpes-Cote d'Azur,France
39491350522,37.943102,-119.029237,Mono,California,United States
25773367747,-34.846071,-54.632992,Mono,Maldonado,Uruguay
39699511221,55.376086,25.955801,Ignalina District Municipality,Utena County,Lithuania
26145405558,52.601888,-0.239351,Cambridgeshire,England,United Kingdom
39526955614,36.985140,-122.023429,Santa Cruz,California,United States
42493256251,39.746183,19.938651,Ionian Islands,Peloponnese Western Greece and the Ionian Island,Greece
39885566780,53.674468,-1.941404,West Yorkshire,England,United Kingdom
42563494462,36.926703,14.729833,Ragusa,Sicily,Italy
41455801565,59.079063,10.874213,Hvaler Kommune,Ostfold,Norway
40615580441,51.343913,-2.255645,Wiltshire,England,United Kingdom
25009177327,-36.077753,-72.800650,Nuble Province,Biobio Region,Chile
27847762997,54.528845,-3.257542,Cumbria,England,United Kingdom
26461965178,50.719028,-2.937930,Dorset,England,United Kingdom
28308619908,43.239056,-79.971853,Hamilton,Ontario,Canada
39465752764,47.592061,12.165497,Kufstein District,Tyrol,Austria
41798550961,45.769396,11.731166,Vicenza,Veneto,Italy
40942046924,54.054347,-0.469628,East Riding of Yorkshire,England,United Kingdom
42275961851,37.744000,-119.592181,Mariposa,California,United States
26839450007,-36.724920,-56.672737,La Costa,Buenos Aires Province,Argentina
41495288434,37.780246,-122.513179,San Francisco,California,United States
40011500501,27.932009,-81.932816,Polk,Florida,United States
28967739238,49.129133,8.597466,Karlsruhe,Baden-Wurttemberg,Germany
38870373424,21.642111,87.545242,East Midnapore,West Bengal,India
25601021367,36.391883,-80.267923,Stokes,North Carolina,United States
40254418480,40.086091,-105.590512,Boulder,Colorado,United States
40457043630,48.735361,-113.453063,Glacier,Montana,United States
24984923237,38.134624,24.014911,Attica,Attica,Greece
40991145335,50.633080,6.476802,Duren,North Rhine-Westphalia,Germany
42078974131,52.365845,9.735903,Hanover,Lower Saxony,Germany
42587563391,55.240125,-6.331975,Moyle,Northern Ireland,United Kingdom
42083112541,22.271115,114.150182,Moyle,Central and Western,Hong Kong
25164402887,46.899087,-91.036963,Bayfield,Wisconsin,United States
40526452352,48.643083,-2.031011,Ille-et-Vilaine,Brittany,France
27001280317,51.825411,4.032122,Goeree-Overflakkee,South Holland,Netherlands
40566346254,43.425606,-4.762058,Asturias,Asturias,Spain
28455639918,53.066930,-4.071253,Asturias,Wales,United Kingdom
39522762545,51.710818,12.460984,Wittenberg,Saxony-Anhalt,Germany
40142975421,32.187731,-110.816927,Pima,Arizona,United States
42591710422,65.815438,-16.383506,Pima,Nordur-Tingeyjarsysla,Iceland
41998420082,37.610457,-122.496786,San Mateo,California,United States
25906045137,43.733460,-79.360771,Toronto,Ontario,Canada
27076156388,48.404933,-123.348637,Capital,British Columbia,Canada
41379609594,50.644902,-4.763410,Cornwall and Isles of Scilly,England,United Kingdom
28034550309,45.480475,6.071748,Savoy,Rhone-Alpes,France
27798532448,34.747173,-83.480311,Rabun,Georgia,United States
40018024592,-44.687694,169.107742,Queenstown Lakes District,Otago,New Zealand
41813831882,44.624458,-124.060664,Lincoln,Oregon,United States
38790063955,43.313687,3.471336,Herault,Languedoc-Roussillon,France
26735473127,51.211086,3.219337,Bruges,West-Vlaanderen,Belgium
42687406311,51.508050,-0.127909,Greater London,England,United Kingdom
35070552256,43.768754,11.252800,Florence,Tuscany,Italy
40006260500,13.546168,100.627899,Mueang Samut Prakan,Samut Prakan,Thailand
41296996814,-4.331690,55.721282,Mueang Samut Prakan,Grand Anse Praslin,Seychelles
41012251055,39.743577,19.648319,Ionian Islands,Peloponnese Western Greece and the Ionian Island,Greece
26825388757,-34.381050,-72.015987,Cardenal Caro Province,O'Higgins Region,Chile
27459318947,51.248384,-3.005737,Somerset,England,United Kingdom
39189549895,51.906359,4.492957,Rotterdam,South Holland,Netherlands
41755313941,40.673624,-73.339705,Suffolk,New York,United States
28049937948,56.632583,47.908630,Suffolk,Mari El Republic,Russia
39660196955,48.888945,2.247303,Hauts-de-Seine,Ile-de-France,France
39844352324,47.561563,13.648806,Gmunden District,Upper Austria,Austria
40187966181,44.807928,12.237503,Ferrara,Emilia Romagna,Italy
39972009000,28.097802,-82.313239,Hillsborough,Florida,United States
41577176212,40.718769,-3.854398,Madrid,Madrid,Spain
27941033628,46.155587,-1.153746,Charente-Maritime,Poitou-Charentes,France
40481680221,41.440747,2.246671,Barcelona,Catalonia,Spain
27806029258,53.406385,-1.730432,South Yorkshire,England,United Kingdom
28623737908,17.956484,-76.784477,South Yorkshire,Kingston St. John,Jamaica
41818852415,53.137328,-3.799226,Conwy County Borough,Wales,United Kingdom
42368832181,45.433264,12.340299,Venice,Veneto,Italy
41023747005,52.730119,6.090390,Steenwijkerland,Overyssel,Netherlands
39894278085,45.450316,12.348675,Venice,Veneto,Italy
40245144104,45.853160,-73.469439,l'Assomption,Quebec,Canada
38981279215,52.078411,6.445509,Berkelland,Guelders,Netherlands
26718114878,47.488441,19.052696,Budapest X.,Budapest,Hungary
38805164564,43.411240,-2.949228,Biscay,Basque Country,Spain
40422024452,41.371411,2.152504,Barcelona,Catalonia,Spain
26905436547,52.379958,4.641013,Haarlem,North Holland,Netherlands
38887157924,46.528875,-84.585887,Algoma,Ontario,Canada
41772735061,51.918497,4.517816,Rotterdam,South Holland,Netherlands
27840232938,46.189813,-73.125343,d'Autray,Quebec,Canada
41836079812,42.927065,-122.167582,Klamath,Oregon,United States
42430652701,37.900844,-119.257314,Mono,California,United States
40249911130,-34.425048,-72.045048,Cardenal Caro Province,O'Higgins Region,Chile
41465243675,37.574905,-122.298581,San Mateo,California,United States
42078028252,57.368662,17.084426,Borgholm,Kalmar,Sweden
42193995941,51.869852,4.774075,Molenwaard,South Holland,Netherlands
28103060009,43.089199,-79.068260,Niagara,New York,United States
41188424955,45.434833,12.340607,Venice,Veneto,Italy
27980485932,59.288430,10.741688,Rade Kommune,Ostfold,Norway
40903624064,49.774421,5.281419,Virton,Luxemburg,Belgium
28073750368,45.435442,12.336702,Venice,Veneto,Italy
41957688062,43.495327,-8.059018,Corunna,Galicia,Spain
27657708467,59.079063,10.874213,Hvaler Kommune,Ostfold,Norway
41813035801,35.743185,135.106580,Hvaler Kommune,Kyoto Prefecture,Japan
39600447292,42.765288,141.405372,Hvaler Kommune,Hokkaido Prefecture,Japan
42513019281,37.749841,-119.596334,Mariposa,California,United States
40381336770,-4.327924,55.715360,Mariposa,Grand Anse Praslin,Seychelles
40149843550,37.939710,22.170366,West Greece,Peloponnese Western Greece and the Ionian Island,Greece
40967315740,54.665086,-8.778456,West Greece,Donegal,Ireland
40991626584,-35.291682,149.135584,West Greece,Australian Capital Territory,Australia
40391887152,48.864750,2.313437,Paris,Ile-de-France,France
40224448505,51.703958,4.127961,Goeree-Overflakkee,South Holland,Netherlands
40855083445,34.892835,-83.349380,Rabun,Georgia,United States
39360661495,56.417930,-3.913306,Perth and Kinross,Scotland,United Kingdom
28139302528,41.012936,28.980066,Kartal,Istanbul,Turkey
41121973015,39.743577,19.648319,Ionian Islands,Peloponnese Western Greece and the Ionian Island,Greece
39733906614,39.453625,-0.363235,Valencia,Valencia,Spain
39443382235,32.855421,-17.153091,Porto Moniz,Madeira Islands,Portugal
39237019815,-23.057106,-68.217802,El Loa Province,Antofagasta Region,Chile
41205917434,45.082684,12.290954,Rovigo,Veneto,Italy
27239614297,50.633130,6.476811,Duren,North Rhine-Westphalia,Germany
39267888005,51.506395,-0.019397,Greater London,England,United Kingdom
42714035301,28.344430,-16.921852,Santa Cruz de Tenerife,Canary Islands,Spain
26021370697,48.875801,2.258108,Hauts-de-Seine,Ile-de-France,France
42390603432,37.214557,-122.407693,San Mateo,California,United States
40542105730,53.525481,9.928700,Stadtkreis Hamburg,Hamburg,Germany
39046705390,47.349077,0.545454,Indre-et-Loire,Centre region,France
42178182824,47.054964,8.318088,Lucerne,Canton of Lucerne,Switzerland
42060316221,50.345962,4.847846,Dinant,Namur,Belgium
27515841207,57.705986,-2.852267,Moray,Scotland,United Kingdom
41318838561,53.457955,-6.249439,Moray,Dublin,Ireland
39509265460,52.473743,4.817354,Zaanstad,North Holland,Netherlands
25438063647,55.679907,12.591254,Copenhagen,Hovedstaden,Denmark
40874336192,29.639015,-81.199915,Flagler,Florida,United States
41178222441,51.708427,4.080677,Goeree-Overflakkee,South Holland,Netherlands
41999882614,50.779729,-1.073784,Hampshire,England,United Kingdom
28321885609,52.659408,-0.691064,Rutland County,England,United Kingdom
41330536264,40.779183,14.311065,Naples,Campania,Italy
41135827434,61.226136,6.548897,Balestrand,Sogn og Fjordane,Norway
42702263191,41.499913,-81.709013,Cuyahoga,Ohio,United States
39672245462,47.794519,-4.211915,Finistere,Brittany,France
41849042981,51.391583,4.466347,Antwerp,Antwerp,Belgium
26774031727,51.501833,-0.136065,Greater London,England,United Kingdom
27824420529,60.385811,22.451141,Turun,Finland Proper,Finland
41745065152,53.418433,-1.745796,Turun,England,United Kingdom
28057373379,-33.902564,151.268048,Turun,New South Wales,Australia
28065274579,37.921275,23.695565,Attica,Attica,Greece
41270338232,41.700986,2.855011,Gerona,Catalonia,Spain
41301402081,51.826808,4.028463,Goeree-Overflakkee,South Holland,Netherlands
26825824688,52.344380,4.642680,Haarlem,North Holland,Netherlands
40826641435,45.960010,8.870279,Canton of Lugano,Canton of Ticino,Switzerland
39298762154,38.783407,-9.094963,Lisbon,Lisbon,Portugal
40071603772,25.200669,55.343542,Dubai,Dubai,United Arab Emirates
41906261761,27.956737,-82.814233,Pinellas,Florida,United States
42357606031,58.484946,15.659122,Linkoping,Ostergotland,Sweden
27406561847,59.696509,11.850814,Romskog Kommune,Ostfold,Norway
41843697611,46.821207,3.455715,Nievre,Burgundy,France
28097911668,46.982828,3.150329,Nievre,Burgundy,France
41126911234,50.622459,-2.273955,Dorset,England,United Kingdom
40808487395,28.097802,-82.313239,Hillsborough,Florida,United States
41492015255,42.118904,34.984588,Merkez,Sinop,Turkey
42450343171,46.155827,-1.153339,Charente-Maritime,Poitou-Charentes,France
40103568730,51.907240,4.490833,Rotterdam,South Holland,Netherlands
39302243260,47.155968,1.201028,Indre-et-Loire,Centre region,France
41759802442,56.005933,-2.513648,East Lothian,Scotland,United Kingdom
38796143664,52.263983,4.499021,Noordwijkerhout,South Holland,Netherlands
28320731258,27.881246,-82.850395,Pinellas,Florida,United States
41937314811,43.622248,-70.208601,Cumberland,Maine,United States
41021775030,52.520145,13.364632,Berlin,Berlin,Germany
39633672262,51.212146,3.227652,Bruges,West-Vlaanderen,Belgium
42717115621,53.331186,-117.846254,Alberta,Alberta,Canada
41768796334,-41.806381,172.845325,Tasman District,Tasman,New Zealand
41834631681,39.509305,-0.321865,Valencia,Valencia,Spain
39877968811,38.133577,24.013237,Attica,Attica,Greece
40570751754,57.610833,-6.172223,Highland,Scotland,United Kingdom
39401780755,32.098644,34.809257,Highland,Tel Aviv,Israel
26230700337,47.500068,19.040615,Budapest X.,Budapest,Hungary
24760685207,45.036206,12.382450,Rovigo,Veneto,Italy
41318497514,45.436827,12.321166,Venice,Veneto,Italy
39785159315,48.765075,-113.735235,Flathead,Montana,United States
38804451315,37.721170,-119.645662,Mariposa,California,United States
40423732961,50.719052,-2.937401,Dorset,England,United Kingdom
41226620625,51.167288,13.679437,Landkreis Meissen,Saxony,Germany
27845655897,15.400319,-61.343006,Landkreis Meissen,Saint Paul,Dominica
27867962037,43.078125,-88.161699,Waukesha,Wisconsin,United States
26000196258,68.154442,13.533353,Vestvagoy Kommune,Nordland,Norway
40658351912,52.929861,-4.215059,Gwynedd,Wales,United Kingdom
27946940007,43.737677,-79.359741,Toronto,Ontario,Canada
25585575327,59.855662,17.640652,Uppsala,Uppsala Lan,Sweden
28665121368,-4.372428,55.842475,Uppsala,Baie Ste. Anne,Seychelles
40506178701,52.256011,6.146572,Deventer,Overyssel,Netherlands
39370042444,48.311910,7.532326,Bas-Rhin,Alsace,France
40927767510,28.370243,-16.875911,Santa Cruz de Tenerife,Canary Islands,Spain
39746644800,46.969359,3.171958,Nievre,Burgundy,France
40485812731,53.489843,-2.546081,Greater Manchester,England,United Kingdom
40323339571,53.672612,-2.050666,West Yorkshire,England,United Kingdom
40064320180,45.475058,12.553253,Venice,Veneto,Italy
41339088665,52.932359,5.994758,Heerenveen,Frise,Netherlands
28816896098,57.297756,-6.311881,Highland,Scotland,United Kingdom
42167376632,51.770838,4.184416,Goeree-Overflakkee,South Holland,Netherlands
41761563171,59.658081,17.392462,Habo,Uppsala Lan,Sweden
39858939915,39.767240,-0.154784,Castellon,Valencia,Spain
40514783430,37.726552,-119.547534,Mariposa,California,United States
26289206447,-3.353205,114.867210,Banjar,South Kalimantan,Indonesia
42149013961,54.283717,-2.122260,North Yorkshire,England,United Kingdom
39430153761,59.442107,24.957997,Joelahtme Parish,Harju County,Estonia
41205100064,51.970208,5.348247,Wijk bij Duurstede,Utrecht,Netherlands
41043619300,28.097802,-82.313239,Hillsborough,Florida,United States
39664876501,-38.329529,144.969577,Mornington Peninsula,Victoria,Australia
41820044535,51.356413,-2.994503,Somerset,England,United Kingdom
39773772562,15.877810,108.325796,Thành Phố Hội an,Quang Nam,Vietnam
42291599812,50.408178,4.884366,Namur,Namur,Belgium
38608511790,50.350677,-3.577895,Devon,England,United Kingdom
40227571700,35.620368,-83.670006,Blount,Tennessee,United States
41494762264,39.782880,19.676383,Ionian Islands,Peloponnese Western Greece and the Ionian Island,Greece
25849752838,48.859294,2.558441,Seine-St.-Denis,Ile-de-France,France
28566761428,53.137142,-1.811800,Derbyshire,England,United Kingdom
38955636414,55.276538,-7.631957,Derbyshire,Donegal,Ireland
39941424220,46.824877,8.422179,Obwalden,Canton of Obwalden,Switzerland
28013745158,-4.624506,55.385341,Obwalden,English River,Seychelles
41867583324,51.540833,-0.146112,Greater London,England,United Kingdom
39855230502,57.420300,-6.787834,Highland,Scotland,United Kingdom
42880645571,57.705480,-2.859214,Moray,Scotland,United Kingdom
41913745551,37.117415,-8.577597,Portimao,Faro,Portugal
41636982445,51.826130,4.026263,Goeree-Overflakkee,South Holland,Netherlands
27587902397,51.758072,4.027019,Goeree-Overflakkee,South Holland,Netherlands
25431666157,25.305157,83.007974,Varanasi,Uttar Pradesh,India
41359791462,59.025587,11.036968,Hvaler Kommune,Ostfold,Norway
28453982238,51.917661,4.097113,Westvoorne,South Holland,Netherlands
40230368620,35.512790,138.768095,Minamitsuru-gun,Yamanashi Prefecture,Japan
28451661358,39.671955,19.702786,Ionian Islands,Peloponnese Western Greece and the Ionian Island,Greece
28296854448,38.371299,22.077788,Central Greece,Thessaly and Continental Greece,Greece
25416671157,45.640987,-73.472313,Montreal,Quebec,Canada
26779298467,42.226014,-87.937424,Lake,Illinois,United States
26829614167,-3.027659,35.026469,Lake,Illinois,Tanzania
41236183824,51.936369,-3.269197,Powys County,Wales,United Kingdom
25884721298,47.174428,-1.624603,Loire-Atlantique,Pays de la Loire,France
27313927177,45.881069,-123.965113,Clatsop,Oregon,United States
27304522397,39.868005,20.015377,Sarande,Vlore,Albania
41493420584,47.377429,8.543930,Zurich,Canton of Zurich,Switzerland
40828846141,37.943005,-119.025835,Mono,California,United States
39202342945,50.826107,-0.192089,East Sussex,England,United Kingdom
40412383191,45.508341,-122.666783,Multnomah,Oregon,United States
39837387601,65.688651,-18.052232,Multnomah,Akureyri,Iceland
26728300797,26.142706,-81.807836,Collier,Florida,United States
27705021468,44.049280,9.833815,La Spezia,Liguria,Italy
41799405581,46.215119,6.168136,Geneva,Canton of Geneva,Switzerland
41088253464,-4.372428,55.842475,Geneva,Baie Ste. Anne,Seychelles
42786048021,43.662128,-79.374547,Toronto,Ontario,Canada
28233384548,56.110857,-4.615760,Argyll and Bute,Scotland,United Kingdom
27390606747,51.785538,4.097402,Goeree-Overflakkee,South Holland,Netherlands
40250174032,55.975527,11.854248,Halsnaes,Hovedstaden,Denmark
27296210617,54.527395,-3.408765,Cumbria,England,United Kingdom
40116950725,40.155064,-5.246572,Avila,Castille and Leon,Spain
42539077332,50.391108,-5.149600,Cornwall and Isles of Scilly,England,United Kingdom
42312470132,39.920433,20.152788,Delvine,Vlore,Albania
28269274349,25.265444,55.295671,Dubai,Dubai,United Arab Emirates
40435316272,10.592284,-85.650788,Carrillo,Guanacaste Province,Costa Rica
25949284797,47.336942,15.383491,Carrillo,Styria,Austria
42236329182,51.819427,4.127747,Hellevoetsluis,South Holland,Netherlands
41462384545,39.744170,19.647760,Ionian Islands,Peloponnese Western Greece and the Ionian Island,Greece
28322961199,42.971034,-2.827541,Araba,Basque Country,Spain
41712936602,44.913678,12.485361,Rovigo,Veneto,Italy
25369025557,37.738752,-25.661830,Ponta Delgada,Azores,Portugal
25076964007,35.898316,14.520792,Isla,Malta Xlokk,Malta
42038206222,41.110825,20.795763,Isla,Ohrid Municipality,Macedonia
39948942241,48.670654,-3.923164,Finistere,Brittany,France
39577340202,45.434237,12.340736,Venice,Veneto,Italy
38923200035,37.721475,-119.644417,Mariposa,California,United States
26433268268,39.456908,-0.353271,Valencia,Valencia,Spain
41786696761,64.244557,-14.968657,Valencia,Auster-Skaftafellssysla,Iceland
25156465007,24.557041,-81.812719,Monroe,Florida,United States
41713165645,41.021096,28.972835,Kartal,Istanbul,Turkey
28487828068,50.583254,3.884696,Ath,Hainault,Belgium
42235226832,40.903474,-4.028055,Segovia,Castille and Leon,Spain
42217262652,53.610585,-2.048413,Greater Manchester,England,United Kingdom
41031463902,54.837390,-4.257566,Dumfries and Galloway,Scotland,United Kingdom
25249612217,32.185286,-110.816519,Pima,Arizona,United States
39471824645,48.616716,23.685694,Pima,Zakarpattia Oblast,Ukraine
39635545042,49.295988,-123.152640,Greater Vancouver,British Columbia,Canada
42162313824,45.433638,12.341013,Venice,Veneto,Italy
28263699308,54.565742,-3.160200,Cumbria,England,United Kingdom
41807132582,18.523125,-77.856051,Cumbria,Saint James,Jamaica
41895495414,22.312525,114.222825,Cumbria,Kwun Tong,Hong Kong
40895359894,44.876916,15.605392,Cumbria,Kwun Tong,Croatia
42545782081,52.916666,1.350000,Norfolk,England,United Kingdom
42509070571,57.705483,-2.859231,Moray,Scotland,United Kingdom
41692445375,37.610457,-122.496786,San Mateo,California,United States
26038334277,-34.539934,-58.437480,Ciudad de Buenos Aires,Autonomous City of Buenos Aires,Argentina
27676388557,13.896410,100.608329,Bang Khen,Bangkok,Thailand
25999087588,48.151596,7.417656,Haut-Rhin,Alsace,France
41708350442,52.649104,-0.642013,Rutland County,England,United Kingdom
39476381384,40.700825,-73.996862,Brooklyn,New York,United States
26169479868,52.235316,-6.836273,Brooklyn,Wexford,Ireland
40096984362,51.504260,-0.086325,Greater London,England,United Kingdom
39889553190,39.369763,-0.335469,Valencia,Valencia,Spain
27533138558,57.703997,-2.864223,Moray,Scotland,United Kingdom
27787062828,53.465750,6.151027,Schiermonnikoog,Frise,Netherlands
41486206185,64.275607,-21.140441,Schiermonnikoog,Arnessysla,Iceland
42802579551,59.784338,17.628657,Uppsala,Uppsala Lan,Sweden
41901972802,57.535374,-3.803523,Highland,Scotland,United Kingdom
41212849834,54.343880,8.603988,Nordfriesland,Schleswig-Holstein,Germany
39785344221,-22.298308,166.437849,Noumea,Sud,New Caledonia
39324710010,60.124932,18.780269,Norrtalje,Stockholm,Sweden
28215526838,53.137760,-1.810083,Derbyshire,England,United Kingdom
40082302371,57.593275,-5.450763,Highland,Scotland,United Kingdom
27169072807,-3.030919,35.027868,Highland,Scotland,Tanzania
39891289435,-7.807726,110.012969,Kabupaten Purworejo,Central Java,Indonesia
38712746345,48.344436,10.624766,Landkreis Augsburg,Bavaria,Germany
39134616480,35.887490,14.520299,Isla,Malta Xlokk,Malta
41658079252,3.148824,101.694881,Kuala Lumpur,Kuala Lumpur,Malaysia
41224744385,38.373067,22.080416,Central Greece,Thessaly and Continental Greece,Greece
41561889422,-8.153039,115.004539,Buleleng Kabupaten,Bali,Indonesia
27836098067,40.785363,14.301795,Naples,Campania,Italy
40452511050,43.769110,11.250214,Florence,Tuscany,Italy
42021674004,47.770786,-3.608300,Finistere,Brittany,France
40847519931,41.545773,2.196375,Barcelona,Catalonia,Spain
25356048057,48.968174,1.713459,Yvelines,Ile-de-France,France
41379923705,43.902839,8.022766,Imperia,Liguria,Italy
41323847584,37.811999,-122.407207,San Francisco,California,United States
42332606021,40.796592,-73.961248,Manhattan,New York,United States
41389706944,28.213356,83.951339,Gandaki,West,Nepal
40904386530,44.390524,10.010390,Parma,Emilia Romagna,Italy
39436172502,-38.432597,141.543538,Glenelg,Victoria,Australia
28036393358,39.743577,19.648319,Ionian Islands,Peloponnese Western Greece and the Ionian Island,Greece
25790272508,40.935558,-75.313478,Monroe,Pennsylvania,United States
27912902348,44.410331,8.938890,Genoa,Liguria,Italy
26853315918,50.399941,-3.505411,Devon,England,United Kingdom
40034480581,27.931573,-81.932644,Polk,Florida,United States
26386656077,46.819131,8.414411,Obwalden,Canton of Obwalden,Switzerland
39327934150,40.700943,-73.996846,Brooklyn,New York,United States
25172468177,53.347041,-6.260061,Brooklyn,Dublin,Ireland
40920991261,43.468571,-1.573684,Pyrenees-Atlantiques,Aquitaine,France
41184456764,40.584332,-4.043097,Madrid,Madrid,Spain
41790646005,54.559023,-0.793075,North Yorkshire,England,United Kingdom
42739170651,68.147361,14.201580,Vagan Kommune,Nordland,Norway
27121557077,44.136056,9.683246,La Spezia,Liguria,Italy
41766846102,53.366188,-1.699662,Derbyshire,England,United Kingdom
25919608007,-12.554044,130.874204,Litchfield,Northern Territory,Australia
40091193125,43.313687,3.471336,Herault,Languedoc-Roussillon,France
26516381958,50.758045,0.144538,East Sussex,England,United Kingdom
25958944797,52.380039,4.642117,Haarlem,North Holland,Netherlands
41639488835,37.875751,-122.505776,Marin,California,United States
42479390172,47.365367,8.634653,Uster,Canton of Zurich,Switzerland
39089119624,24.558816,-81.808884,Monroe,Florida,United States
39766098835,23.202599,-81.156649,Monroe,Matanzas,Cuba
28246058709,50.826444,-0.198028,East Sussex,England,United Kingdom
41993794232,53.235913,6.523566,Groningen,Groningen,Netherlands
39932598941,42.198681,8.423767,South Corsica,Corsica,France
39724823034,47.166123,0.237264,Indre-et-Loire,Centre region,France
40479921930,52.485132,13.344011,Berlin,Berlin,Germany
42526376502,52.445522,0.503847,Suffolk,England,United Kingdom
26533232208,16.488332,-61.441061,Anse Bertrand,Pointe-A-Pitre,Guadeloupe
40561564910,42.206745,23.318266,Sapareva Banya,Kyustendil,Bulgaria
24905542827,47.262145,0.464973,Indre-et-Loire,Centre region,France
26771434138,53.489843,-2.546081,Greater Manchester,England,United Kingdom
42384730831,28.791713,-82.252407,Citrus,Florida,United States
27360918727,-4.331690,55.721282,Citrus,Grand Anse Praslin,Seychelles
41505470825,65.539179,-18.074312,Citrus,Eyjafjardarsysla,Iceland
28928707818,45.606712,-122.097072,Citrus,Oregon,United States
41177664801,51.931168,1.275615,Essex,England,United Kingdom
38547665740,-27.979775,153.429961,Gold Coast City,Queensland,Australia
40983772272,46.003405,-1.120347,Charente-Maritime,Poitou-Charentes,France
28189332438,47.605375,-124.373431,Jefferson,Washington,United States
28320721278,64.046819,-16.180631,Jefferson,Auster-Skaftafellssysla,Iceland
28230890999,59.325762,18.061341,Stockholm Kommun,Stockholm,Sweden
18585877499,59.270733,10.744264,Fredrikstad Kommune,Ostfold,Norway
39625323530,47.544040,12.973480,Berchtesgadener Land,Bavaria,Germany
27269405268,52.383790,4.642711,Haarlem,North Holland,Netherlands
40884646580,28.346847,-16.922110,Santa Cruz de Tenerife,Canary Islands,Spain
27809123757,51.675738,4.105805,Schouwen-Duiveland,Zeeland,Netherlands
41822846675,43.737677,-79.359741,Toronto,Ontario,Canada
41269499582,51.504260,-0.086325,Greater London,England,United Kingdom
38748584250,33.240912,-88.766613,Noxubee,Mississippi,United States
26361134927,32.750900,-16.697609,Machico,Madeira Islands,Portugal
42563380781,40.738022,-3.817491,Madrid,Madrid,Spain
41060403755,51.828188,3.925999,Goeree-Overflakkee,South Holland,Netherlands
40908026975,47.502859,19.034661,Budapest X.,Budapest,Hungary
28322602168,50.433162,5.013885,Namur,Namur,Belgium
27142369227,54.522588,-3.392693,Cumbria,England,United Kingdom
42123213261,48.054300,-123.790994,Clallam,Washington,United States
28303006768,43.523441,13.620729,Ancona,Marche,Italy
41900601521,-19.207428,15.949401,Omuthiyagwiipundi,Oshikoto,Namibia
42457995862,51.505083,-0.078979,Greater London,England,United Kingdom
25819958287,23.202599,-81.156649,Greater London,Matanzas,Cuba
41014787340,44.709917,-75.511597,Leeds and Grenville,Ontario,Canada
39727418015,1.284627,103.859184,Leeds and Grenville,Central Singapore,Singapore
41972348094,45.187807,-85.383686,Antrim,Michigan,United States
27333545367,38.265231,15.717315,Reggio di Calabria,Calabria,Italy
27822511427,43.734124,-79.359312,Toronto,Ontario,Canada
41505640664,53.311256,-4.040919,Anglesey County,Wales,United Kingdom
28207478809,38.443006,-9.101934,Sesimbra,Setubal,Portugal
28484396218,51.735580,4.050411,Goeree-Overflakkee,South Holland,Netherlands
27903760068,56.248988,-3.503009,Perth and Kinross,Scotland,United Kingdom
28679787148,53.131427,-3.991212,Gwynedd,Wales,United Kingdom
41333763154,40.702146,-73.998112,Brooklyn,New York,United States
25580495268,35.433793,136.196544,Brooklyn,Shiga Prefecture,Japan
42708424712,28.370158,-16.877038,Santa Cruz de Tenerife,Canary Islands,Spain
40983490232,37.736986,-119.600150,Mariposa,California,United States
42162294614,68.104169,13.288049,Flakstad Kommune,Nordland,Norway
27877616378,34.630206,135.034353,Flakstad Kommune,Hyogo Prefecture,Japan
41448802354,39.736874,-75.581132,New Castle,Delaware,United States
41977615574,60.339663,18.444478,Osthammar,Uppsala Lan,Sweden
40988986340,40.417392,-4.565066,Avila,Castille and Leon,Spain
27411420137,28.576638,-16.184126,Santa Cruz de Tenerife,Canary Islands,Spain
40682642455,-41.430999,147.139699,Launceston,Tasmania,Australia
39719485855,53.546631,9.861978,Stadtkreis Hamburg,Hamburg,Germany
41716386152,57.487453,-6.623382,Highland,Scotland,United Kingdom
25426864327,68.079050,13.298946,Flakstad Kommune,Nordland,Norway
41164761954,34.979482,135.746705,Flakstad Kommune,Kyoto Prefecture,Japan
40037904110,48.630951,-1.501178,Manche,Lower Normandy,France
39749718892,52.380157,4.642850,Haarlem,North Holland,Netherlands
27429852098,46.202324,-1.200363,Charente-Maritime,Poitou-Charentes,France
41077670124,-37.960618,145.009918,Charente-Maritime,Victoria,Australia
27788975848,42.932094,-122.079116,Klamath,Oregon,United States
28430799439,47.399482,0.684928,Indre-et-Loire,Centre region,France
39961363425,31.155240,121.362524,Shanghai,Shanghai,China
41923995041,-3.030770,35.027811,Shanghai,Shanghai,Tanzania
40447348430,-4.365068,55.850543,Shanghai,Baie Ste. Anne,Seychelles
27713269158,56.401869,-5.025334,Argyll and Bute,Scotland,United Kingdom
27241285967,53.274668,-1.634752,Derbyshire,England,United Kingdom
28232915688,22.271091,114.151103,Derbyshire,Central and Western,Hong Kong
27413100837,47.883517,12.418874,Rosenheim,Bavaria,Germany
41413017722,46.155060,-1.154015,Charente-Maritime,Poitou-Charentes,France
26900455867,13.546677,100.628419,Mueang Samut Prakan,Samut Prakan,Thailand
26427453967,46.818174,8.403850,Obwalden,Canton of Obwalden,Switzerland
26074387437,1.248995,103.821787,Obwalden,South West,Singapore
41769460431,47.635725,-117.415834,Spokane,Washington,United States
39779876370,59.659468,17.394844,Habo,Uppsala Lan,Sweden
40568363922,50.601450,-3.434848,Devon,England,United Kingdom
26939195658,-20.299835,57.362558,Devon,Black River,Mauritius
40531661115,16.262140,-61.246032,Saint-Francois,Pointe-A-Pitre,Guadeloupe
41578728302,-37.994539,145.030474,Saint-Francois,Victoria,Australia
42688494812,48.140194,7.260930,Haut-Rhin,Alsace,France
25751274748,21.002749,-156.554607,Maui,Hawaii,United States
41470634822,51.504508,-0.009527,Greater London,England,United Kingdom
40852423705,13.444387,-16.689605,Greater London,Western,The Gambia
42078542811,39.797486,19.673911,Ionian Islands,Peloponnese Western Greece and the Ionian Island,Greece
24823080567,54.561446,-3.315925,Cumbria,England,United Kingdom
27663446047,51.853488,4.528083,Barendrecht,South Holland,Netherlands
27659446087,40.714903,-4.013291,Madrid,Madrid,Spain
27219927478,46.142892,-1.171985,Charente-Maritime,Poitou-Charentes,France
39921396782,41.299304,-76.274751,Luzerne,Pennsylvania,United States
41486038295,23.666663,-109.690933,Los Cabos,Baja California Sur,Mexico
28942911138,53.444052,-3.042526,Merseyside,England,United Kingdom
41250147754,34.961266,135.807580,Merseyside,Kyoto Prefecture,Japan
